{"t":1762348415515,"d":{"mac":"2CCF67CB6518","lat":44.8317412,"lon":11.2240097,"sats":9,"qual":5,"speedKmh":0.3,"ts":"251104131335","receivedAt":1762348415515,"accel":{"x":0.004,"y":-0.004,"z":-0.016},"gyro":{"x":0,"y":0,"z":0},"mag":{"x":22.31,"y":-56.31,"z":-14.88},"quat":{"i":0.0577,"j":-0.0159,"k":0.7005,"r":0.7111},"euler":{"roll":3.45,"pitch":-5.93,"yaw":88.96}}}
{"t":1762348415516,"d":{"mac":"2CCF679AF535","lat":44.8316757,"lon":11.224082,"sats":8,"qual":5,"speedKmh":0.1,"ts":"251105131335","receivedAt":1762348415515}}
{"t":1762348415516,"d":{"mac":"2CCF679AF52F","lat":44.8317402,"lon":11.2240993,"sats":6,"qual":5,"speedKmh":0.1,"ts":"251105131335","receivedAt":1762348415516,"accel":{"x":0.004,"y":0.043,"z":0.008},"gyro":{"x":0.002,"y":0.0039,"z":0},"mag":{"x":16.75,"y":-41.75,"z":-14.81},"quat":{"i":0.0005,"j":-0.0325,"k":0,"r":0.9995},"euler":{"roll":0.06,"pitch":-3.72,"yaw":0}}}
{"t":1762348415539,"d":{"mac":"2CCF679AF535","lat":44.8316758,"lon":11.224082,"sats":8,"qual":5,"speedKmh":0.1,"ts":"251105131335","receivedAt":1762348415538}}
{"t":1762348415540,"d":{"mac":"2CCF679AF52F","lat":44.8317402,"lon":11.2240993,"sats":6,"qual":5,"speedKmh":0.1,"ts":"251105131335","receivedAt":1762348415540,"accel":{"x":0.004,"y":-0.004,"z":-0.031},"gyro":{"x":-0.002,"y":0.0039,"z":-0.002},"mag":{"x":17.38,"y":-42.69,"z":-14},"quat":{"i":0.0005,"j":-0.0325,"k":0,"r":0.9995},"euler":{"roll":0.06,"pitch":-3.72,"yaw":0}}}
{"t":1762348415555,"d":{"mac":"2CCF67CB6518","lat":44.8317413,"lon":11.2240097,"sats":9,"qual":5,"speedKmh":0.2,"ts":"251104131335","receivedAt":1762348415555,"accel":{"x":0.004,"y":-0.004,"z":0.023},"gyro":{"x":0,"y":0,"z":0},"mag":{"x":25.06,"y":-58.88,"z":-12.75},"quat":{"i":0.0577,"j":-0.0159,"k":0.7005,"r":0.7111},"euler":{"roll":3.45,"pitch":-5.93,"yaw":88.96}}}
{"t":1762348415608,"d":{"mac":"2CCF679AF535","lat":44.8316758,"lon":11.224082,"sats":8,"qual":5,"speedKmh":0.1,"ts":"251105131335","receivedAt":1762348415608}}
{"t":1762348415615,"d":{"mac":"2CCF67CB6518","lat":44.8317413,"lon":11.2240098,"sats":9,"qual":5,"speedKmh":0.2,"ts":"251104131335","receivedAt":1762348415615,"accel":{"x":0.004,"y":-0.004,"z":-0.016},"gyro":{"x":0,"y":0,"z":0},"mag":{"x":24.62,"y":-57.69,"z":-14.88},"quat":{"i":0.0577,"j":-0.0159,"k":0.7005,"r":0.7111},"euler":{"roll":3.45,"pitch":-5.93,"yaw":88.96}}}
{"t":1762348415627,"d":{"mac":"2CCF679AF52F","lat":44.8317402,"lon":11.2240992,"sats":6,"qual":5,"speedKmh":0.2,"ts":"251105131335","receivedAt":1762348415627,"accel":{"x":0.004,"y":0.035,"z":0.016},"gyro":{"x":0,"y":-0.002,"z":0},"mag":{"x":17.69,"y":-42.62,"z":-14.44},"quat":{"i":0.0005,"j":-0.0325,"k":0,"r":0.9995},"euler":{"roll":0.06,"pitch":-3.72,"yaw":0}}}
{"t":1762348415668,"d":{"mac":"2CCF679AF535","lat":44.831676,"lon":11.2240818,"sats":8,"qual":5,"speedKmh":0.2,"ts":"251105131335","receivedAt":1762348415668}}
{"t":1762348415680,"d":{"mac":"2CCF679AF52F","lat":44.8317402,"lon":11.2240992,"sats":6,"qual":5,"speedKmh":0.2,"ts":"251105131335","receivedAt":1762348415680,"accel":{"x":0.004,"y":-0.004,"z":0.016},"gyro":{"x":0,"y":0.0039,"z":0},"mag":{"x":16.44,"y":-41.38,"z":-14.44},"quat":{"i":0.0005,"j":-0.0325,"k":-0.0001,"r":0.9995},"euler":{"roll":0.06,"pitch":-3.72,"yaw":-0.01}}}
{"t":1762348415703,"d":{"mac":"2CCF67CB6518","lat":44.8317413,"lon":11.2240098,"sats":9,"qual":5,"speedKmh":0,"ts":"251104131335","receivedAt":1762348415703,"accel":{"x":0.004,"y":-0.004,"z":-0.016},"gyro":{"x":0,"y":0,"z":0},"mag":{"x":23.31,"y":-59.5,"z":-13.62},"quat":{"i":0.0577,"j":-0.0159,"k":0.7005,"r":0.7111},"euler":{"roll":3.45,"pitch":-5.94,"yaw":88.96}}}
{"t":1762348415738,"d":{"mac":"2CCF679AF535","lat":44.831676,"lon":11.2240818,"sats":8,"qual":5,"speedKmh":0.2,"ts":"251105131335","receivedAt":1762348415738}}
{"t":1762348415740,"d":{"mac":"2CCF679AF52F","lat":44.8317402,"lon":11.2240992,"sats":6,"qual":5,"speedKmh":0,"ts":"251105131335","receivedAt":1762348415740,"accel":{"x":0.004,"y":-0.004,"z":0.016},"gyro":{"x":0.002,"y":0,"z":0},"mag":{"x":16.56,"y":-42.44,"z":-15.44},"quat":{"i":0.0005,"j":-0.0325,"k":-0.0001,"r":0.9995},"euler":{"roll":0.06,"pitch":-3.72,"yaw":-0.01}}}
{"t":1762348415755,"d":{"mac":"2CCF67CB6518","lat":44.8317413,"lon":11.2240098,"sats":9,"qual":5,"speedKmh":0.2,"ts":"251104131335","receivedAt":1762348415755,"accel":{"x":0.012,"y":0.004,"z":-0.016},"gyro":{"x":0,"y":0,"z":0},"mag":{"x":23.12,"y":-57.81,"z":-15.12},"quat":{"i":0.0577,"j":-0.0159,"k":0.7005,"r":0.7111},"euler":{"roll":3.45,"pitch":-5.94,"yaw":88.96}}}
{"t":1762348415809,"d":{"mac":"2CCF679AF535","lat":44.8316762,"lon":11.2240817,"sats":8,"qual":5,"speedKmh":0.2,"ts":"251105131335","receivedAt":1762348415809}}
{"t":1762348415820,"d":{"mac":"2CCF679AF52F","lat":44.8317402,"lon":11.224099,"sats":6,"qual":5,"speedKmh":0.1,"ts":"251105131335","receivedAt":1762348415820,"accel":{"x":0.004,"y":-0.004,"z":-0.031},"gyro":{"x":0,"y":0,"z":0},"mag":{"x":17.75,"y":-41.31,"z":-14.56},"quat":{"i":0.0005,"j":-0.0325,"k":-0.0001,"r":0.9995},"euler":{"roll":0.06,"pitch":-3.72,"yaw":-0.01}}}
{"t":1762348415823,"d":{"mac":"2CCF67CB6518","lat":44.8317413,"lon":11.2240098,"sats":9,"qual":5,"speedKmh":0,"ts":"251104131335","receivedAt":1762348415823,"accel":{"x":0.004,"y":-0.035,"z":-0.008},"gyro":{"x":0,"y":0,"z":0},"mag":{"x":24.88,"y":-57.75,"z":-14.25},"quat":{"i":0.0577,"j":-0.0159,"k":0.7005,"r":0.7111},"euler":{"roll":3.45,"pitch":-5.94,"yaw":88.96}}}
{"t":1762348415868,"d":{"mac":"2CCF679AF535","lat":44.8316762,"lon":11.2240817,"sats":8,"qual":5,"speedKmh":0.1,"ts":"251105131335","receivedAt":1762348415868}}
{"t":1762348415880,"d":{"mac":"2CCF679AF52F","lat":44.8317402,"lon":11.224099,"sats":6,"qual":5,"speedKmh":0.2,"ts":"251105131335","receivedAt":1762348415880,"accel":{"x":0.004,"y":-0.004,"z":0.008},"gyro":{"x":0,"y":0,"z":0},"mag":{"x":15.81,"y":-42.12,"z":-14.88},"quat":{"i":0.0006,"j":-0.0325,"k":-0.0001,"r":0.9995},"euler":{"roll":0.07,"pitch":-3.72,"yaw":-0.01}}}
{"t":1762348415910,"d":{"mac":"2CCF67CB6518","lat":44.8317415,"lon":11.2240098,"sats":9,"qual":5,"speedKmh":0.1,"ts":"251104131335","receivedAt":1762348415910,"accel":{"x":0.004,"y":-0.035,"z":0.031},"gyro":{"x":0,"y":0,"z":0},"mag":{"x":24.81,"y":-58.31,"z":-13.06},"quat":{"i":0.0577,"j":-0.0159,"k":0.7005,"r":0.7111},"euler":{"roll":3.45,"pitch":-5.94,"yaw":88.96}}}
{"t":1762348415939,"d":{"mac":"2CCF679AF535","lat":44.8316763,"lon":11.2240817,"sats":8,"qual":5,"speedKmh":0.2,"ts":"251105131335","receivedAt":1762348415938}}
{"t":1762348415948,"d":{"mac":"2CCF679AF52F","lat":44.8317402,"lon":11.224099,"sats":6,"qual":5,"speedKmh":0,"ts":"251105131335","receivedAt":1762348415948,"accel":{"x":0.004,"y":0.035,"z":0.008},"gyro":{"x":0,"y":0,"z":0},"mag":{"x":17.62,"y":-41.69,"z":-15},"quat":{"i":0.0006,"j":-0.0325,"k":-0.0001,"r":0.9995},"euler":{"roll":0.07,"pitch":-3.72,"yaw":-0.01}}}
{"t":1762348415955,"d":{"mac":"2CCF67CB6518","lat":44.8317415,"lon":11.2240097,"sats":9,"qual":5,"speedKmh":0.1,"ts":"251104131335","receivedAt":1762348415955,"accel":{"x":0.004,"y":0.004,"z":-0.008},"gyro":{"x":0,"y":0,"z":0},"mag":{"x":23.31,"y":-59,"z":-12.12},"quat":{"i":0.0577,"j":-0.0159,"k":0.7005,"r":0.7111},"euler":{"roll":3.45,"pitch":-5.94,"yaw":88.96}}}
{"t":1762348415996,"d":{"mac":"2CCF679AF535","lat":44.8316765,"lon":11.2240815,"sats":8,"qual":5,"speedKmh":0.3,"ts":"251105131335","receivedAt":1762348415995}}
{"t":1762348416000,"d":{"mac":"2CCF679AF52F","lat":44.8317402,"lon":11.224099,"sats":6,"qual":5,"speedKmh":0.1,"ts":"251105131335","receivedAt":1762348416000,"accel":{"x":-0.035,"y":0.035,"z":0.008},"gyro":{"x":0,"y":0,"z":0},"mag":{"x":17.19,"y":-42.06,"z":-14.94},"quat":{"i":0.0006,"j":-0.0325,"k":-0.0001,"r":0.9995},"euler":{"roll":0.07,"pitch":-3.72,"yaw":-0.01}}}
{"t":1762348416022,"d":{"mac":"2CCF67CB6518","lat":44.8317415,"lon":11.2240097,"sats":9,"qual":5,"speedKmh":0.1,"ts":"251104131335","receivedAt":1762348416022,"accel":{"x":0.004,"y":0.004,"z":-0.008},"gyro":{"x":0,"y":0,"z":0},"mag":{"x":24.62,"y":-56.69,"z":-14.94},"quat":{"i":0.0577,"j":-0.0159,"k":0.7005,"r":0.7111},"euler":{"roll":3.45,"pitch":-5.94,"yaw":88.96}}}
{"t":1762348416069,"d":{"mac":"2CCF679AF535","lat":44.8316765,"lon":11.2240815,"sats":8,"qual":5,"speedKmh":0.2,"ts":"251105131335","receivedAt":1762348416068}}
{"t":1762348416088,"d":{"mac":"2CCF679AF52F","lat":44.8317402,"lon":11.224099,"sats":6,"qual":5,"speedKmh":0.2,"ts":"251105131336","receivedAt":1762348416088,"accel":{"x":0.004,"y":-0.004,"z":0.008},"gyro":{"x":0,"y":0,"z":0},"mag":{"x":18.56,"y":-40.81,"z":-14.69},"quat":{"i":0.0007,"j":-0.0325,"k":-0.0001,"r":0.9995},"euler":{"roll":0.08,"pitch":-3.72,"yaw":-0.01}}}
{"t":1762348416095,"d":{"mac":"2CCF67CB6518","lat":44.8317413,"lon":11.2240098,"sats":9,"qual":5,"speedKmh":0.1,"ts":"251104131336","receivedAt":1762348416095,"accel":{"x":0.004,"y":0.004,"z":-0.008},"gyro":{"x":0,"y":0,"z":0},"mag":{"x":23.12,"y":-58.38,"z":-14.56},"quat":{"i":0.0577,"j":-0.0159,"k":0.7005,"r":0.7111},"euler":{"roll":3.45,"pitch":-5.94,"yaw":88.96}}}
{"t":1762348416128,"d":{"mac":"2CCF679AF535","lat":44.8316765,"lon":11.2240815,"sats":8,"qual":5,"speedKmh":0.2,"ts":"251105131336","receivedAt":1762348416128}}
{"t":1762348416140,"d":{"mac":"2CCF679AF52F","lat":44.8317402,"lon":11.2240988,"sats":6,"qual":5,"speedKmh":0.2,"ts":"251105131336","receivedAt":1762348416140,"accel":{"x":0.004,"y":-0.004,"z":0.008},"gyro":{"x":0,"y":0,"z":0},"mag":{"x":18.19,"y":-41.38,"z":-14.25},"quat":{"i":0.0007,"j":-0.0324,"k":-0.0001,"r":0.9995},"euler":{"roll":0.08,"pitch":-3.71,"yaw":-0.01}}}
{"t":1762348416163,"d":{"mac":"2CCF67CB6518","lat":44.8317415,"lon":11.2240097,"sats":9,"qual":5,"speedKmh":0.1,"ts":"251104131336","receivedAt":1762348416163,"accel":{"x":0.004,"y":0.004,"z":0.031},"gyro":{"x":0,"y":0,"z":0},"mag":{"x":24.19,"y":-59.44,"z":-13},"quat":{"i":0.0577,"j":-0.0159,"k":0.7005,"r":0.7111},"euler":{"roll":3.44,"pitch":-5.94,"yaw":88.96}}}
{"t":1762348416198,"d":{"mac":"2CCF679AF535","lat":44.8316767,"lon":11.2240813,"sats":8,"qual":5,"speedKmh":0.3,"ts":"251105131336","receivedAt":1762348416198}}
{"t":1762348416276,"d":{"mac":"2CCF67CB6518","lat":44.8317415,"lon":11.2240097,"sats":9,"qual":5,"speedKmh":0.3,"ts":"251104131336","receivedAt":1762348416276,"accel":{"x":0.004,"y":0.004,"z":-0.008},"gyro":{"x":0,"y":0,"z":0},"mag":{"x":23.06,"y":-58.44,"z":-13.62},"quat":{"i":0.0577,"j":-0.0159,"k":0.7005,"r":0.7111},"euler":{"roll":3.44,"pitch":-5.94,"yaw":88.96}}}
{"t":1762348416278,"d":{"mac":"2CCF679AF535","lat":44.8316767,"lon":11.2240813,"sats":8,"qual":5,"speedKmh":0.2,"ts":"251105131336","receivedAt":1762348416278}}
{"t":1762348416287,"d":{"mac":"2CCF679AF52F","lat":44.8317402,"lon":11.2240988,"sats":6,"qual":5,"speedKmh":0.2,"ts":"251105131336","receivedAt":1762348416287,"accel":{"x":0.004,"y":0.035,"z":0.008},"gyro":{"x":0,"y":0,"z":0},"mag":{"x":16.38,"y":-41.81,"z":-14.69},"quat":{"i":0.0007,"j":-0.0324,"k":-0.0001,"r":0.9995},"euler":{"roll":0.08,"pitch":-3.71,"yaw":-0.01}}}
{"t":1762348416287,"d":{"mac":"2CCF679AF52F","lat":44.8317402,"lon":11.2240988,"sats":6,"qual":5,"speedKmh":0.1,"ts":"251105131336","receivedAt":1762348416287,"accel":{"x":0.004,"y":-0.012,"z":0.008},"gyro":{"x":0,"y":0,"z":0},"mag":{"x":15.88,"y":-40.44,"z":-15.06},"quat":{"i":0.0007,"j":-0.0324,"k":-0.0001,"r":0.9995},"euler":{"roll":0.08,"pitch":-3.71,"yaw":-0.01}}}
{"t":1762348416302,"d":{"mac":"2CCF67CB6518","lat":44.8317417,"lon":11.2240097,"sats":9,"qual":5,"speedKmh":0.3,"ts":"251104131336","receivedAt":1762348416302,"accel":{"x":0.004,"y":0.004,"z":-0.016},"gyro":{"x":0,"y":0,"z":0},"mag":{"x":22.81,"y":-58.44,"z":-13.94},"quat":{"i":0.0577,"j":-0.0159,"k":0.7005,"r":0.7111},"euler":{"roll":3.44,"pitch":-5.94,"yaw":88.96}}}
{"t":1762348416339,"d":{"mac":"2CCF679AF535","lat":44.8316767,"lon":11.2240813,"sats":8,"qual":5,"speedKmh":0.2,"ts":"251105131336","receivedAt":1762348416338}}
{"t":1762348416340,"d":{"mac":"2CCF679AF52F","lat":44.8317402,"lon":11.2240987,"sats":6,"qual":5,"speedKmh":0.1,"ts":"251105131336","receivedAt":1762348416340,"accel":{"x":0.004,"y":-0.004,"z":0.008},"gyro":{"x":0,"y":0,"z":0},"mag":{"x":17.19,"y":-41.25,"z":-15.06},"quat":{"i":0.0007,"j":-0.0324,"k":-0.0001,"r":0.9995},"euler":{"roll":0.08,"pitch":-3.71,"yaw":-0.01}}}
{"t":1762348416363,"d":{"mac":"2CCF67CB6518","lat":44.8317417,"lon":11.2240097,"sats":9,"qual":5,"speedKmh":0.2,"ts":"251104131336","receivedAt":1762348416363,"accel":{"x":0.004,"y":0.004,"z":0.023},"gyro":{"x":0,"y":0,"z":0},"mag":{"x":23.62,"y":-58.94,"z":-13.31},"quat":{"i":0.0577,"j":-0.0159,"k":0.7005,"r":0.7111},"euler":{"roll":3.44,"pitch":-5.94,"yaw":88.96}}}
{"t":1762348416399,"d":{"mac":"2CCF679AF535","lat":44.8316768,"lon":11.2240812,"sats":8,"qual":5,"speedKmh":0.2,"ts":"251105131336","receivedAt":1762348416398}}
{"t":1762348416400,"d":{"mac":"2CCF679AF52F","lat":44.8317402,"lon":11.2240985,"sats":6,"qual":5,"speedKmh":0.2,"ts":"251105131336","receivedAt":1762348416400,"accel":{"x":0.004,"y":-0.004,"z":-0.031},"gyro":{"x":0,"y":0,"z":0},"mag":{"x":15.94,"y":-40.94,"z":-14.81},"quat":{"i":0.0007,"j":-0.0324,"k":-0.0001,"r":0.9995},"euler":{"roll":0.08,"pitch":-3.71,"yaw":-0.01}}}
{"t":1762348416450,"d":{"mac":"2CCF67CB6518","lat":44.8317417,"lon":11.2240097,"sats":9,"qual":5,"speedKmh":0.1,"ts":"251104131336","receivedAt":1762348416450,"accel":{"x":0.012,"y":0.004,"z":0.023},"gyro":{"x":0,"y":0,"z":0},"mag":{"x":24.56,"y":-57.31,"z":-13.38},"quat":{"i":0.0577,"j":-0.0159,"k":0.7005,"r":0.7111},"euler":{"roll":3.44,"pitch":-5.94,"yaw":88.96}}}
{"t":1762348416458,"d":{"mac":"2CCF679AF535","lat":44.8316768,"lon":11.2240812,"sats":8,"qual":5,"speedKmh":0.1,"ts":"251105131336","receivedAt":1762348416458}}
{"t":1762348416480,"d":{"mac":"2CCF679AF52F","lat":44.8317402,"lon":11.2240985,"sats":6,"qual":5,"speedKmh":0.2,"ts":"251105131336","receivedAt":1762348416480,"accel":{"x":0.004,"y":0.035,"z":-0.023},"gyro":{"x":0,"y":0,"z":0},"mag":{"x":17.31,"y":-43.12,"z":-14.19},"quat":{"i":0.0007,"j":-0.0324,"k":-0.0001,"r":0.9995},"euler":{"roll":0.08,"pitch":-3.71,"yaw":-0.01}}}
{"t":1762348416495,"d":{"mac":"2CCF67CB6518","lat":44.8317417,"lon":11.2240097,"sats":9,"qual":5,"speedKmh":0.1,"ts":"251104131336","receivedAt":1762348416495,"accel":{"x":0.012,"y":0.004,"z":0.023},"gyro":{"x":0,"y":0,"z":0},"mag":{"x":24.88,"y":-57.75,"z":-14.25},"quat":{"i":0.0576,"j":-0.0159,"k":0.7005,"r":0.7111},"euler":{"roll":3.44,"pitch":-5.93,"yaw":88.96}}}
{"t":1762348416529,"d":{"mac":"2CCF679AF535","lat":44.831677,"lon":11.2240812,"sats":8,"qual":5,"speedKmh":0.3,"ts":"251105131336","receivedAt":1762348416528}}
{"t":1762348416540,"d":{"mac":"2CCF679AF52F","lat":44.8317402,"lon":11.2240985,"sats":6,"qual":5,"speedKmh":0.1,"ts":"251105131336","receivedAt":1762348416540,"accel":{"x":0.004,"y":-0.004,"z":0.016},"gyro":{"x":0,"y":0,"z":0},"mag":{"x":18.06,"y":-41.69,"z":-14.69},"quat":{"i":0.0007,"j":-0.0324,"k":-0.0001,"r":0.9995},"euler":{"roll":0.08,"pitch":-3.71,"yaw":-0.01}}}
{"t":1762348416563,"d":{"mac":"2CCF67CB6518","lat":44.8317418,"lon":11.2240097,"sats":9,"qual":5,"speedKmh":0.2,"ts":"251104131336","receivedAt":1762348416563,"accel":{"x":0.012,"y":0.004,"z":-0.016},"gyro":{"x":0,"y":0,"z":0},"mag":{"x":24.75,"y":-59.94,"z":-13.31},"quat":{"i":0.0576,"j":-0.0159,"k":0.7005,"r":0.7111},"euler":{"roll":3.44,"pitch":-5.93,"yaw":88.96}}}
{"t":1762348416588,"d":{"mac":"2CCF679AF535","lat":44.831677,"lon":11.2240812,"sats":8,"qual":5,"speedKmh":0.3,"ts":"251105131336","receivedAt":1762348416588}}
{"t":1762348416607,"d":{"mac":"2CCF679AF52F","lat":44.8317402,"lon":11.2240985,"sats":6,"qual":5,"speedKmh":0.1,"ts":"251105131336","receivedAt":1762348416607,"accel":{"x":0.004,"y":-0.004,"z":0.016},"gyro":{"x":0,"y":0,"z":0},"mag":{"x":15.94,"y":-41.88,"z":-14.5},"quat":{"i":0.0007,"j":-0.0324,"k":-0.0001,"r":0.9995},"euler":{"roll":0.08,"pitch":-3.71,"yaw":-0.01}}}
{"t":1762348416623,"d":{"mac":"2CCF67CB6518","lat":44.8317418,"lon":11.2240097,"sats":9,"qual":5,"speedKmh":0.2,"ts":"251104131336","receivedAt":1762348416623,"accel":{"x":0.012,"y":0.004,"z":-0.016},"gyro":{"x":0,"y":0,"z":0},"mag":{"x":23.19,"y":-56.81,"z":-14.88},"quat":{"i":0.0576,"j":-0.0159,"k":0.7005,"r":0.7111},"euler":{"roll":3.44,"pitch":-5.93,"yaw":88.96}}}
{"t":1762348416659,"d":{"mac":"2CCF679AF535","lat":44.831677,"lon":11.224081,"sats":8,"qual":5,"speedKmh":0.2,"ts":"251105131336","receivedAt":1762348416658}}
{"t":1762348416676,"d":{"mac":"2CCF679AF52F","lat":44.8317402,"lon":11.2240983,"sats":6,"qual":5,"speedKmh":0.2,"ts":"251105131336","receivedAt":1762348416676,"accel":{"x":0.004,"y":-0.004,"z":0.016},"gyro":{"x":0,"y":0,"z":0},"mag":{"x":17.62,"y":-42.06,"z":-14.94},"quat":{"i":0.0007,"j":-0.0324,"k":-0.0001,"r":0.9995},"euler":{"roll":0.08,"pitch":-3.71,"yaw":-0.01}}}
{"t":1762348416695,"d":{"mac":"2CCF67CB6518","lat":44.8317418,"lon":11.2240097,"sats":9,"qual":5,"speedKmh":0.1,"ts":"251104131336","receivedAt":1762348416695,"accel":{"x":0.012,"y":0.004,"z":-0.016},"gyro":{"x":0,"y":0,"z":0},"mag":{"x":24.19,"y":-60,"z":-13},"quat":{"i":0.0576,"j":-0.0159,"k":0.7005,"r":0.7111},"euler":{"roll":3.44,"pitch":-5.92,"yaw":88.96}}}
{"t":1762348416729,"d":{"mac":"2CCF679AF535","lat":44.831677,"lon":11.224081,"sats":8,"qual":5,"speedKmh":0.1,"ts":"251105131336","receivedAt":1762348416728}}
{"t":1762348416755,"d":{"mac":"2CCF67CB6518","lat":44.8317418,"lon":11.2240095,"sats":9,"qual":5,"speedKmh":0,"ts":"251104131336","receivedAt":1762348416755,"accel":{"x":0.012,"y":0.004,"z":0.023},"gyro":{"x":0,"y":0,"z":0},"mag":{"x":22.81,"y":-58.94,"z":-14.19},"quat":{"i":0.0576,"j":-0.0159,"k":0.7005,"r":0.7111},"euler":{"roll":3.44,"pitch":-5.92,"yaw":88.96}}}
{"t":1762348416767,"d":{"mac":"2CCF679AF52F","lat":44.8317402,"lon":11.2240982,"sats":6,"qual":5,"speedKmh":0.3,"ts":"251105131336","receivedAt":1762348416767,"accel":{"x":0.004,"y":-0.004,"z":0.016},"gyro":{"x":0,"y":0,"z":0},"mag":{"x":15.94,"y":-40.94,"z":-14.81},"quat":{"i":0.0008,"j":-0.0324,"k":-0.0001,"r":0.9995},"euler":{"roll":0.09,"pitch":-3.71,"yaw":-0.01}}}
{"t":1762348416788,"d":{"mac":"2CCF679AF535","lat":44.831677,"lon":11.224081,"sats":8,"qual":5,"speedKmh":0.1,"ts":"251105131336","receivedAt":1762348416788}}
{"t":1762348416808,"d":{"mac":"2CCF679AF52F","lat":44.8317402,"lon":11.2240983,"sats":6,"qual":5,"speedKmh":0.1,"ts":"251105131336","receivedAt":1762348416808,"accel":{"x":0.004,"y":-0.004,"z":-0.023},"gyro":{"x":0,"y":0,"z":0},"mag":{"x":17.25,"y":-40.81,"z":-14.88},"quat":{"i":0.0008,"j":-0.0324,"k":-0.0001,"r":0.9995},"euler":{"roll":0.09,"pitch":-3.71,"yaw":-0.01}}}
{"t":1762348416835,"d":{"mac":"2CCF67CB6518","lat":44.8317418,"lon":11.2240095,"sats":9,"qual":5,"speedKmh":0.1,"ts":"251104131336","receivedAt":1762348416835,"accel":{"x":0.012,"y":0.004,"z":0.023},"gyro":{"x":0,"y":0,"z":0},"mag":{"x":24.19,"y":-60,"z":-13},"quat":{"i":0.0576,"j":-0.0159,"k":0.7005,"r":0.7111},"euler":{"roll":3.44,"pitch":-5.92,"yaw":88.96}}}
{"t":1762348416859,"d":{"mac":"2CCF679AF535","lat":44.8316772,"lon":11.2240808,"sats":8,"qual":5,"speedKmh":0.2,"ts":"251105131336","receivedAt":1762348416858}}
{"t":1762348416860,"d":{"mac":"2CCF679AF52F","lat":44.8317402,"lon":11.2240983,"sats":6,"qual":5,"speedKmh":0,"ts":"251105131336","receivedAt":1762348416860,"accel":{"x":0.004,"y":0.004,"z":0.016},"gyro":{"x":0,"y":0,"z":0},"mag":{"x":17.56,"y":-41.62,"z":-15.19},"quat":{"i":0.0007,"j":-0.0324,"k":-0.0001,"r":0.9995},"euler":{"roll":0.08,"pitch":-3.71,"yaw":-0.01}}}
{"t":1762348416904,"d":{"mac":"2CCF67CB6518","lat":44.8317418,"lon":11.2240095,"sats":9,"qual":5,"speedKmh":0.1,"ts":"251104131336","receivedAt":1762348416903,"accel":{"x":0.051,"y":0.004,"z":-0.016},"gyro":{"x":0,"y":0,"z":0},"mag":{"x":23.94,"y":-58.38,"z":-12.75},"quat":{"i":0.0576,"j":-0.0159,"k":0.7005,"r":0.7111},"euler":{"roll":3.44,"pitch":-5.92,"yaw":88.96}}}
{"t":1762348416929,"d":{"mac":"2CCF679AF535","lat":44.8316773,"lon":11.2240808,"sats":8,"qual":5,"speedKmh":0.3,"ts":"251105131336","receivedAt":1762348416929}}
{"t":1762348416940,"d":{"mac":"2CCF679AF52F","lat":44.8317402,"lon":11.224098,"sats":6,"qual":5,"speedKmh":0.3,"ts":"251105131336","receivedAt":1762348416940,"accel":{"x":0.004,"y":-0.004,"z":0.016},"gyro":{"x":0,"y":0,"z":0},"mag":{"x":17.44,"y":-42.31,"z":-13.88},"quat":{"i":0.0007,"j":-0.0324,"k":-0.0001,"r":0.9995},"euler":{"roll":0.08,"pitch":-3.71,"yaw":-0.01}}}
{"t":1762348416955,"d":{"mac":"2CCF67CB6518","lat":44.8317418,"lon":11.2240095,"sats":9,"qual":5,"speedKmh":0.1,"ts":"251104131336","receivedAt":1762348416955,"accel":{"x":0.004,"y":-0.004,"z":-0.008},"gyro":{"x":0,"y":0,"z":0},"mag":{"x":23.31,"y":-59.5,"z":-13.31},"quat":{"i":0.0576,"j":-0.0159,"k":0.7005,"r":0.7111},"euler":{"roll":3.44,"pitch":-5.92,"yaw":88.96}}}
{"t":1762348416989,"d":{"mac":"2CCF679AF535","lat":44.8316773,"lon":11.2240807,"sats":8,"qual":5,"speedKmh":0.1,"ts":"251105131336","receivedAt":1762348416989}}
{"t":1762348417000,"d":{"mac":"2CCF679AF52F","lat":44.8317402,"lon":11.224098,"sats":6,"qual":5,"speedKmh":0.2,"ts":"251105131336","receivedAt":1762348417000,"accel":{"x":0.004,"y":0.035,"z":0.008},"gyro":{"x":0,"y":0,"z":0},"mag":{"x":17.75,"y":-42.19,"z":-14.25},"quat":{"i":0.0007,"j":-0.0324,"k":-0.0001,"r":0.9995},"euler":{"roll":0.08,"pitch":-3.71,"yaw":-0.01}}}
{"t":1762348417035,"d":{"mac":"2CCF67CB6518","lat":44.831742,"lon":11.2240095,"sats":9,"qual":5,"speedKmh":0.2,"ts":"251104131336","receivedAt":1762348417035,"accel":{"x":0.004,"y":-0.004,"z":-0.008},"gyro":{"x":0,"y":0,"z":0},"mag":{"x":25.44,"y":-59.31,"z":-14.25},"quat":{"i":0.0576,"j":-0.0158,"k":0.7005,"r":0.7111},"euler":{"roll":3.45,"pitch":-5.92,"yaw":88.96}}}
{"t":1762348417059,"d":{"mac":"2CCF679AF535","lat":44.8316775,"lon":11.2240807,"sats":8,"qual":5,"speedKmh":0.2,"ts":"251105131336","receivedAt":1762348417058}}
{"t":1762348417060,"d":{"mac":"2CCF679AF52F","lat":44.8317402,"lon":11.224098,"sats":6,"qual":5,"speedKmh":0.2,"ts":"251105131336","receivedAt":1762348417060,"accel":{"x":0.004,"y":-0.004,"z":0.008},"gyro":{"x":0,"y":0,"z":0},"mag":{"x":16.44,"y":-41.88,"z":-14.44},"quat":{"i":0.0007,"j":-0.0324,"k":0,"r":0.9995},"euler":{"roll":0.08,"pitch":-3.71,"yaw":0}}}
{"t":1762348417095,"d":{"mac":"2CCF67CB6518","lat":44.831742,"lon":11.2240093,"sats":9,"qual":5,"speedKmh":0.4,"ts":"251104131337","receivedAt":1762348417095,"accel":{"x":0.004,"y":-0.004,"z":0.031},"gyro":{"x":0,"y":0,"z":0},"mag":{"x":23.12,"y":-58.88,"z":-14.81},"quat":{"i":0.0576,"j":-0.0158,"k":0.7005,"r":0.7111},"euler":{"roll":3.45,"pitch":-5.92,"yaw":88.96}}}
{"t":1762348417119,"d":{"mac":"2CCF679AF535","lat":44.8316775,"lon":11.2240805,"sats":8,"qual":5,"speedKmh":0.1,"ts":"251105131336","receivedAt":1762348417119}}
{"t":1762348417140,"d":{"mac":"2CCF679AF52F","lat":44.8317402,"lon":11.224098,"sats":6,"qual":5,"speedKmh":0.2,"ts":"251105131337","receivedAt":1762348417140,"accel":{"x":0.004,"y":-0.004,"z":-0.031},"gyro":{"x":0,"y":0,"z":0},"mag":{"x":16.56,"y":-42,"z":-15.5},"quat":{"i":0.0007,"j":-0.0324,"k":0,"r":0.9995},"euler":{"roll":0.08,"pitch":-3.71,"yaw":0}}}
{"t":1762348417164,"d":{"mac":"2CCF67CB6518","lat":44.831742,"lon":11.2240093,"sats":9,"qual":5,"speedKmh":0.3,"ts":"251104131337","receivedAt":1762348417163,"accel":{"x":0.004,"y":-0.004,"z":-0.008},"gyro":{"x":0,"y":0,"z":0},"mag":{"x":23.69,"y":-57.94,"z":-13.69},"quat":{"i":0.0576,"j":-0.0158,"k":0.7005,"r":0.7111},"euler":{"roll":3.45,"pitch":-5.92,"yaw":88.96}}}
{"t":1762348417189,"d":{"mac":"2CCF679AF535","lat":44.8316777,"lon":11.2240805,"sats":9,"qual":5,"speedKmh":0.2,"ts":"251105131337","receivedAt":1762348417189}}
{"t":1762348417200,"d":{"mac":"2CCF679AF52F","lat":44.8317402,"lon":11.2240978,"sats":6,"qual":5,"speedKmh":0.2,"ts":"251105131337","receivedAt":1762348417200,"accel":{"x":0.004,"y":-0.004,"z":0.008},"gyro":{"x":0,"y":0,"z":0},"mag":{"x":17.31,"y":-42.19,"z":-14.31},"quat":{"i":0.0007,"j":-0.0324,"k":-0.0001,"r":0.9995},"euler":{"roll":0.08,"pitch":-3.71,"yaw":-0.01}}}
{"t":1762348417259,"d":{"mac":"2CCF679AF535","lat":44.8316778,"lon":11.2240803,"sats":9,"qual":5,"speedKmh":0.3,"ts":"251105131337","receivedAt":1762348417258}}
{"t":1762348417280,"d":{"mac":"2CCF679AF52F","lat":44.8317402,"lon":11.2240978,"sats":6,"qual":5,"speedKmh":0.1,"ts":"251105131337","receivedAt":1762348417280,"accel":{"x":0.004,"y":-0.004,"z":0.008},"gyro":{"x":0,"y":0,"z":0},"mag":{"x":16.75,"y":-41.31,"z":-14.88},"quat":{"i":0.0008,"j":-0.0324,"k":-0.0001,"r":0.9995},"euler":{"roll":0.09,"pitch":-3.71,"yaw":-0.01}}}
{"t":1762348417282,"d":{"mac":"2CCF67CB6518","lat":44.831742,"lon":11.2240093,"sats":9,"qual":5,"speedKmh":0.1,"ts":"251104131337","receivedAt":1762348417282,"accel":{"x":0.004,"y":-0.004,"z":-0.016},"gyro":{"x":0,"y":0,"z":0},"mag":{"x":23.69,"y":-58.38,"z":-13.31},"quat":{"i":0.0577,"j":-0.0158,"k":0.7005,"r":0.7111},"euler":{"roll":3.45,"pitch":-5.93,"yaw":88.96}}}
{"t":1762348417295,"d":{"mac":"2CCF67CB6518","lat":44.831742,"lon":11.2240095,"sats":9,"qual":5,"speedKmh":0.1,"ts":"251104131337","receivedAt":1762348417295,"accel":{"x":0.004,"y":-0.004,"z":-0.016},"gyro":{"x":0,"y":0,"z":0},"mag":{"x":24.25,"y":-58.31,"z":-13.94},"quat":{"i":0.0577,"j":-0.0158,"k":0.7005,"r":0.7111},"euler":{"roll":3.45,"pitch":-5.93,"yaw":88.96}}}
{"t":1762348417329,"d":{"mac":"2CCF679AF535","lat":44.8316778,"lon":11.2240803,"sats":9,"qual":5,"speedKmh":0.2,"ts":"251105131337","receivedAt":1762348417328}}
{"t":1762348417340,"d":{"mac":"2CCF679AF52F","lat":44.8317402,"lon":11.2240978,"sats":6,"qual":5,"speedKmh":0.2,"ts":"251105131337","receivedAt":1762348417340,"accel":{"x":0.004,"y":-0.004,"z":0.008},"gyro":{"x":0,"y":0,"z":0},"mag":{"x":16.62,"y":-42.06,"z":-15.25},"quat":{"i":0.0008,"j":-0.0324,"k":-0.0001,"r":0.9995},"euler":{"roll":0.09,"pitch":-3.71,"yaw":-0.01}}}
{"t":1762348417363,"d":{"mac":"2CCF67CB6518","lat":44.831742,"lon":11.2240095,"sats":9,"qual":5,"speedKmh":0.1,"ts":"251104131337","receivedAt":1762348417363,"accel":{"x":0.012,"y":0.004,"z":-0.016},"gyro":{"x":0,"y":0,"z":0},"mag":{"x":24.56,"y":-58.81,"z":-13.94},"quat":{"i":0.0577,"j":-0.0158,"k":0.7005,"r":0.7111},"euler":{"roll":3.45,"pitch":-5.93,"yaw":88.96}}}
{"t":1762348417389,"d":{"mac":"2CCF679AF535","lat":44.8316778,"lon":11.2240802,"sats":9,"qual":5,"speedKmh":0.2,"ts":"251105131337","receivedAt":1762348417388}}
{"t":1762348417400,"d":{"mac":"2CCF679AF52F","lat":44.8317402,"lon":11.2240978,"sats":6,"qual":5,"speedKmh":0.2,"ts":"251105131337","receivedAt":1762348417400,"accel":{"x":0.004,"y":-0.004,"z":0.008},"gyro":{"x":0,"y":0,"z":0},"mag":{"x":16.94,"y":-42.75,"z":-13.88},"quat":{"i":0.0008,"j":-0.0324,"k":-0.0001,"r":0.9995},"euler":{"roll":0.09,"pitch":-3.71,"yaw":-0.01}}}
{"t":1762348417442,"d":{"mac":"2CCF67CB6518","lat":44.8317422,"lon":11.2240093,"sats":9,"qual":5,"speedKmh":0.3,"ts":"251104131337","receivedAt":1762348417442,"accel":{"x":0.004,"y":0.004,"z":0.031},"gyro":{"x":0,"y":0,"z":0},"mag":{"x":23,"y":-60.06,"z":-13.25},"quat":{"i":0.0577,"j":-0.0158,"k":0.7005,"r":0.7111},"euler":{"roll":3.45,"pitch":-5.93,"yaw":88.96}}}
{"t":1762348417448,"d":{"mac":"2CCF679AF535","lat":44.831678,"lon":11.2240802,"sats":9,"qual":5,"speedKmh":0.3,"ts":"251105131337","receivedAt":1762348417448}}
{"t":1762348417460,"d":{"mac":"2CCF679AF52F","lat":44.8317402,"lon":11.2240977,"sats":6,"qual":5,"speedKmh":0.1,"ts":"251105131337","receivedAt":1762348417460,"accel":{"x":0.004,"y":0.035,"z":0.008},"gyro":{"x":0,"y":0,"z":0},"mag":{"x":17.12,"y":-40.31,"z":-15.38},"quat":{"i":0.0008,"j":-0.0324,"k":-0.0001,"r":0.9995},"euler":{"roll":0.09,"pitch":-3.71,"yaw":-0.01}}}
{"t":1762348417496,"d":{"mac":"2CCF67CB6518","lat":44.8317422,"lon":11.2240093,"sats":9,"qual":5,"speedKmh":0.2,"ts":"251104131337","receivedAt":1762348417495,"accel":{"x":0.012,"y":0.004,"z":0.023},"gyro":{"x":0,"y":0,"z":0},"mag":{"x":23.06,"y":-57.88,"z":-13.31},"quat":{"i":0.0577,"j":-0.0158,"k":0.7005,"r":0.7111},"euler":{"roll":3.45,"pitch":-5.93,"yaw":88.96}}}
{"t":1762348417519,"d":{"mac":"2CCF679AF535","lat":44.831678,"lon":11.2240802,"sats":9,"qual":5,"speedKmh":0.3,"ts":"251105131337","receivedAt":1762348417518}}
{"t":1762348417520,"d":{"mac":"2CCF679AF52F","lat":44.8317402,"lon":11.2240977,"sats":6,"qual":5,"speedKmh":0.1,"ts":"251105131337","receivedAt":1762348417520,"accel":{"x":0.004,"y":-0.004,"z":0.008},"gyro":{"x":0,"y":0,"z":0},"mag":{"x":17.12,"y":-40.75,"z":-15.31},"quat":{"i":0.0008,"j":-0.0324,"k":-0.0001,"r":0.9995},"euler":{"roll":0.09,"pitch":-3.71,"yaw":-0.01}}}
{"t":1762348417556,"d":{"mac":"2CCF67CB6518","lat":44.8317422,"lon":11.2240093,"sats":9,"qual":5,"speedKmh":0.3,"ts":"251104131337","receivedAt":1762348417556,"accel":{"x":0.012,"y":0.004,"z":0.023},"gyro":{"x":0,"y":0,"z":0},"mag":{"x":23.38,"y":-58.88,"z":-15.12},"quat":{"i":0.0576,"j":-0.0158,"k":0.7005,"r":0.7111},"euler":{"roll":3.45,"pitch":-5.92,"yaw":88.96}}}
{"t":1762348417589,"d":{"mac":"2CCF679AF535","lat":44.8316782,"lon":11.22408,"sats":9,"qual":5,"speedKmh":0.1,"ts":"251105131337","receivedAt":1762348417589}}
{"t":1762348417600,"d":{"mac":"2CCF679AF52F","lat":44.8317402,"lon":11.2240977,"sats":6,"qual":5,"speedKmh":0.1,"ts":"251105131337","receivedAt":1762348417600,"accel":{"x":0.004,"y":-0.004,"z":0.008},"gyro":{"x":0,"y":0,"z":0},"mag":{"x":16.44,"y":-41.88,"z":-14.25},"quat":{"i":0.0008,"j":-0.0324,"k":-0.0001,"r":0.9995},"euler":{"roll":0.09,"pitch":-3.71,"yaw":-0.01}}}
{"t":1762348417644,"d":{"mac":"2CCF67CB6518","lat":44.8317422,"lon":11.2240093,"sats":9,"qual":5,"speedKmh":0.3,"ts":"251104131337","receivedAt":1762348417643,"accel":{"x":0.012,"y":0.004,"z":-0.016},"gyro":{"x":0,"y":0,"z":0},"mag":{"x":25.38,"y":-59.38,"z":-13.38},"quat":{"i":0.0576,"j":-0.0158,"k":0.7005,"r":0.7111},"euler":{"roll":3.45,"pitch":-5.92,"yaw":88.96}}}
{"t":1762348417651,"d":{"mac":"2CCF679AF535","lat":44.8316782,"lon":11.22408,"sats":9,"qual":5,"speedKmh":0.1,"ts":"251105131337","receivedAt":1762348417650}}
{"t":1762348417668,"d":{"mac":"2CCF679AF52F","lat":44.8317402,"lon":11.2240975,"sats":6,"qual":5,"speedKmh":0.1,"ts":"251105131337","receivedAt":1762348417668,"accel":{"x":0.004,"y":-0.004,"z":0.008},"gyro":{"x":0,"y":0,"z":0},"mag":{"x":16.88,"y":-41.81,"z":-14.38},"quat":{"i":0.0008,"j":-0.0324,"k":-0.0001,"r":0.9995},"euler":{"roll":0.09,"pitch":-3.71,"yaw":-0.01}}}
{"t":1762348417702,"d":{"mac":"2CCF67CB6518","lat":44.8317422,"lon":11.2240093,"sats":9,"qual":5,"speedKmh":0.1,"ts":"251104131337","receivedAt":1762348417702,"accel":{"x":0.012,"y":0.004,"z":-0.016},"gyro":{"x":0,"y":0,"z":0},"mag":{"x":25.38,"y":-59.38,"z":-13.38},"quat":{"i":0.0576,"j":-0.0158,"k":0.7005,"r":0.7111},"euler":{"roll":3.44,"pitch":-5.92,"yaw":88.96}}}
{"t":1762348417718,"d":{"mac":"2CCF679AF535","lat":44.8316782,"lon":11.22408,"sats":9,"qual":5,"speedKmh":0.2,"ts":"251105131337","receivedAt":1762348417718}}
{"t":1762348417728,"d":{"mac":"2CCF679AF52F","lat":44.8317402,"lon":11.2240975,"sats":6,"qual":5,"speedKmh":0.2,"ts":"251105131337","receivedAt":1762348417728,"accel":{"x":0.004,"y":-0.004,"z":0.008},"gyro":{"x":0,"y":0,"z":0},"mag":{"x":16.69,"y":-40.75,"z":-15.38},"quat":{"i":0.0008,"j":-0.0324,"k":-0.0001,"r":0.9995},"euler":{"roll":0.09,"pitch":-3.71,"yaw":-0.01}}}
{"t":1762348417779,"d":{"mac":"2CCF679AF535","lat":44.8316783,"lon":11.2240798,"sats":9,"qual":5,"speedKmh":0.3,"ts":"251105131337","receivedAt":1762348417778}}
{"t":1762348417783,"d":{"mac":"2CCF67CB6518","lat":44.8317422,"lon":11.2240093,"sats":9,"qual":5,"speedKmh":0.1,"ts":"251104131337","receivedAt":1762348417783,"accel":{"x":0.012,"y":0.004,"z":-0.016},"gyro":{"x":0,"y":0,"z":0},"mag":{"x":25.06,"y":-59.94,"z":-13.06},"quat":{"i":0.0576,"j":-0.0158,"k":0.7005,"r":0.7111},"euler":{"roll":3.44,"pitch":-5.92,"yaw":88.96}}}
{"t":1762348417808,"d":{"mac":"2CCF679AF52F","lat":44.8317402,"lon":11.2240973,"sats":6,"qual":5,"speedKmh":0.2,"ts":"251105131337","receivedAt":1762348417808,"accel":{"x":0.004,"y":0.035,"z":-0.031},"gyro":{"x":0,"y":0,"z":0},"mag":{"x":16.19,"y":-42.06,"z":-15.38},"quat":{"i":0.0008,"j":-0.0324,"k":-0.0001,"r":0.9995},"euler":{"roll":0.09,"pitch":-3.71,"yaw":-0.01}}}
{"t":1762348417843,"d":{"mac":"2CCF67CB6518","lat":44.8317422,"lon":11.2240092,"sats":9,"qual":5,"speedKmh":0.2,"ts":"251104131337","receivedAt":1762348417843,"accel":{"x":0.012,"y":0.004,"z":-0.016},"gyro":{"x":0,"y":0,"z":0},"mag":{"x":23.12,"y":-58.38,"z":-14.19},"quat":{"i":0.0576,"j":-0.0158,"k":0.7005,"r":0.7111},"euler":{"roll":3.44,"pitch":-5.92,"yaw":88.96}}}
{"t":1762348417860,"d":{"mac":"2CCF679AF52F","lat":44.8317402,"lon":11.2240975,"sats":6,"qual":5,"speedKmh":0.2,"ts":"251105131337","receivedAt":1762348417860,"accel":{"x":0.004,"y":0.035,"z":0.008},"gyro":{"x":0,"y":0,"z":0},"mag":{"x":17.62,"y":-40.75,"z":-15.06},"quat":{"i":0.0008,"j":-0.0324,"k":-0.0001,"r":0.9995},"euler":{"roll":0.09,"pitch":-3.71,"yaw":-0.01}}}
{"t":1762348417866,"d":{"mac":"2CCF679AF535","lat":44.8316783,"lon":11.2240798,"sats":9,"qual":5,"speedKmh":0.2,"ts":"251105131337","receivedAt":1762348417866}}
{"t":1762348417903,"d":{"mac":"2CCF67CB6518","lat":44.8317423,"lon":11.2240092,"sats":9,"qual":5,"speedKmh":0.2,"ts":"251104131337","receivedAt":1762348417902,"accel":{"x":0.012,"y":0.004,"z":0.023},"gyro":{"x":0,"y":0,"z":0},"mag":{"x":24.81,"y":-59.44,"z":-13.06},"quat":{"i":0.0576,"j":-0.0158,"k":0.7005,"r":0.7111},"euler":{"roll":3.44,"pitch":-5.92,"yaw":88.96}}}
{"t":1762348417908,"d":{"mac":"2CCF679AF535","lat":44.8316785,"lon":11.2240797,"sats":9,"qual":5,"speedKmh":0.2,"ts":"251105131337","receivedAt":1762348417908}}
{"t":1762348417920,"d":{"mac":"2CCF679AF52F","lat":44.8317402,"lon":11.2240973,"sats":6,"qual":5,"speedKmh":0.3,"ts":"251105131337","receivedAt":1762348417920,"accel":{"x":0.004,"y":-0.004,"z":0.008},"gyro":{"x":0,"y":0,"z":0},"mag":{"x":16.25,"y":-41.25,"z":-15.19},"quat":{"i":0.0008,"j":-0.0324,"k":-0.0001,"r":0.9995},"euler":{"roll":0.09,"pitch":-3.71,"yaw":-0.01}}}
{"t":1762348417978,"d":{"mac":"2CCF67CB6518","lat":44.8317423,"lon":11.2240092,"sats":9,"qual":5,"speedKmh":0.3,"ts":"251104131337","receivedAt":1762348417978,"accel":{"x":0.012,"y":0.004,"z":-0.016},"gyro":{"x":0,"y":0,"z":0},"mag":{"x":24.5,"y":-59.94,"z":-13.94},"quat":{"i":0.0575,"j":-0.0157,"k":0.7005,"r":0.7111},"euler":{"roll":3.44,"pitch":-5.91,"yaw":88.96}}}
{"t":1762348417979,"d":{"mac":"2CCF679AF535","lat":44.8316785,"lon":11.2240795,"sats":9,"qual":5,"speedKmh":0.2,"ts":"251105131337","receivedAt":1762348417979}}
{"t":1762348418001,"d":{"mac":"2CCF679AF52F","lat":44.8317402,"lon":11.2240973,"sats":6,"qual":5,"speedKmh":0.2,"ts":"251105131337","receivedAt":1762348418001,"accel":{"x":0.004,"y":-0.004,"z":-0.031},"gyro":{"x":0,"y":0,"z":0},"mag":{"x":16.81,"y":-43.06,"z":-14.5},"quat":{"i":0.0008,"j":-0.0324,"k":-0.0001,"r":0.9995},"euler":{"roll":0.09,"pitch":-3.71,"yaw":-0.01}}}
{"t":1762348418035,"d":{"mac":"2CCF67CB6518","lat":44.8317423,"lon":11.2240092,"sats":9,"qual":5,"speedKmh":0.1,"ts":"251104131337","receivedAt":1762348418035,"accel":{"x":0.004,"y":0.004,"z":-0.008},"gyro":{"x":0,"y":0,"z":0},"mag":{"x":23.62,"y":-59.44,"z":-13.94},"quat":{"i":0.0575,"j":-0.0157,"k":0.7005,"r":0.7111},"euler":{"roll":3.44,"pitch":-5.91,"yaw":88.96}}}
{"t":1762348418049,"d":{"mac":"2CCF679AF535","lat":44.8316787,"lon":11.2240795,"sats":9,"qual":5,"speedKmh":0.2,"ts":"251105131337","receivedAt":1762348418048}}
{"t":1762348418068,"d":{"mac":"2CCF679AF52F","lat":44.8317403,"lon":11.2240973,"sats":6,"qual":5,"speedKmh":0.2,"ts":"251105131337","receivedAt":1762348418068,"accel":{"x":0.004,"y":-0.004,"z":0.008},"gyro":{"x":0,"y":0,"z":0},"mag":{"x":18.06,"y":-41.69,"z":-14.69},"quat":{"i":0.0008,"j":-0.0324,"k":-0.0001,"r":0.9995},"euler":{"roll":0.09,"pitch":-3.71,"yaw":-0.01}}}
{"t":1762348418095,"d":{"mac":"2CCF67CB6518","lat":44.8317423,"lon":11.2240092,"sats":9,"qual":5,"speedKmh":0.2,"ts":"251104131338","receivedAt":1762348418095,"accel":{"x":0.004,"y":0.004,"z":-0.008},"gyro":{"x":0,"y":0,"z":0},"mag":{"x":23.31,"y":-60.56,"z":-14.19},"quat":{"i":0.0575,"j":-0.0158,"k":0.7005,"r":0.7111},"euler":{"roll":3.44,"pitch":-5.91,"yaw":88.96}}}
{"t":1762348418119,"d":{"mac":"2CCF679AF535","lat":44.8316788,"lon":11.2240793,"sats":9,"qual":5,"speedKmh":0.1,"ts":"251105131337","receivedAt":1762348418119}}
{"t":1762348418128,"d":{"mac":"2CCF679AF52F","lat":44.8317402,"lon":11.2240972,"sats":6,"qual":5,"speedKmh":0.1,"ts":"251105131338","receivedAt":1762348418128,"accel":{"x":0.004,"y":-0.004,"z":0.008},"gyro":{"x":0,"y":0,"z":0},"mag":{"x":17.69,"y":-42.12,"z":-14.75},"quat":{"i":0.0008,"j":-0.0324,"k":-0.0001,"r":0.9995},"euler":{"roll":0.09,"pitch":-3.71,"yaw":-0.01}}}
{"t":1762348418175,"d":{"mac":"2CCF67CB6518","lat":44.8317423,"lon":11.2240093,"sats":9,"qual":5,"speedKmh":0,"ts":"251104131338","receivedAt":1762348418175,"accel":{"x":0.012,"y":0.004,"z":0.023},"gyro":{"x":0,"y":0,"z":0},"mag":{"x":23.31,"y":-59.5,"z":-13.62},"quat":{"i":0.0575,"j":-0.0158,"k":0.7005,"r":0.7111},"euler":{"roll":3.44,"pitch":-5.91,"yaw":88.96}}}
{"t":1762348418178,"d":{"mac":"2CCF679AF535","lat":44.831679,"lon":11.2240792,"sats":9,"qual":5,"speedKmh":0.2,"ts":"251105131338","receivedAt":1762348418178}}
{"t":1762348418188,"d":{"mac":"2CCF679AF52F","lat":44.8317402,"lon":11.2240972,"sats":6,"qual":5,"speedKmh":0.2,"ts":"251105131338","receivedAt":1762348418188,"accel":{"x":0.004,"y":-0.004,"z":-0.031},"gyro":{"x":0,"y":0,"z":0},"mag":{"x":17.25,"y":-41.25,"z":-14.88},"quat":{"i":0.0008,"j":-0.0324,"k":-0.0001,"r":0.9995},"euler":{"roll":0.09,"pitch":-3.71,"yaw":-0.01}}}
{"t":1762348418279,"d":{"mac":"2CCF679AF535","lat":44.831679,"lon":11.2240792,"sats":9,"qual":5,"speedKmh":0.2,"ts":"251105131338","receivedAt":1762348418278}}
{"t":1762348418283,"d":{"mac":"2CCF67CB6518","lat":44.8317423,"lon":11.2240092,"sats":9,"qual":5,"speedKmh":0.2,"ts":"251104131338","receivedAt":1762348418283,"accel":{"x":0.012,"y":0.004,"z":0.023},"gyro":{"x":0,"y":0,"z":0},"mag":{"x":24.19,"y":-58.88,"z":-13.06},"quat":{"i":0.0575,"j":-0.0158,"k":0.7005,"r":0.7111},"euler":{"roll":3.44,"pitch":-5.91,"yaw":88.96}}}
{"t":1762348418297,"d":{"mac":"2CCF67CB6518","lat":44.8317423,"lon":11.2240092,"sats":9,"qual":5,"speedKmh":0.2,"ts":"251104131338","receivedAt":1762348418297,"accel":{"x":0.012,"y":0.004,"z":-0.016},"gyro":{"x":0,"y":0,"z":0},"mag":{"x":24.88,"y":-58.25,"z":-14.31},"quat":{"i":0.0575,"j":-0.0158,"k":0.7005,"r":0.7111},"euler":{"roll":3.44,"pitch":-5.91,"yaw":88.96}}}
{"t":1762348418307,"d":{"mac":"2CCF679AF52F","lat":44.8317403,"lon":11.2240972,"sats":6,"qual":5,"speedKmh":0.2,"ts":"251105131338","receivedAt":1762348418307,"accel":{"x":0.004,"y":-0.004,"z":0.008},"gyro":{"x":0,"y":0,"z":0},"mag":{"x":17.25,"y":-41.25,"z":-14.88},"quat":{"i":0.0008,"j":-0.0324,"k":-0.0001,"r":0.9995},"euler":{"roll":0.09,"pitch":-3.71,"yaw":-0.01}}}
{"t":1762348418312,"d":{"mac":"2CCF679AF535","lat":44.8316792,"lon":11.224079,"sats":9,"qual":5,"speedKmh":0.1,"ts":"251105131338","receivedAt":1762348418312}}
{"t":1762348418347,"d":{"mac":"2CCF679AF52F","lat":44.8317403,"lon":11.224097,"sats":6,"qual":5,"speedKmh":0.2,"ts":"251105131338","receivedAt":1762348418347,"accel":{"x":0.004,"y":-0.004,"z":0.008},"gyro":{"x":0,"y":0,"z":0},"mag":{"x":17,"y":-42.31,"z":-13.88},"quat":{"i":0.0008,"j":-0.0324,"k":-0.0001,"r":0.9995},"euler":{"roll":0.09,"pitch":-3.71,"yaw":-0.01}}}
{"t":1762348418375,"d":{"mac":"2CCF67CB6518","lat":44.8317425,"lon":11.2240092,"sats":9,"qual":5,"speedKmh":0.3,"ts":"251104131338","receivedAt":1762348418375,"accel":{"x":0.012,"y":0.004,"z":-0.016},"gyro":{"x":0,"y":0,"z":0},"mag":{"x":23.38,"y":-58.88,"z":-14.81},"quat":{"i":0.0575,"j":-0.0158,"k":0.7005,"r":0.7111},"euler":{"roll":3.44,"pitch":-5.91,"yaw":88.96}}}
{"t":1762348418378,"d":{"mac":"2CCF679AF535","lat":44.8316793,"lon":11.224079,"sats":9,"qual":5,"speedKmh":0.3,"ts":"251105131338","receivedAt":1762348418378}}
{"t":1762348418387,"d":{"mac":"2CCF679AF52F","lat":44.8317402,"lon":11.224097,"sats":6,"qual":5,"speedKmh":0.2,"ts":"251105131338","receivedAt":1762348418387,"accel":{"x":0.004,"y":-0.004,"z":-0.023},"gyro":{"x":0,"y":0,"z":0},"mag":{"x":17.69,"y":-42.12,"z":-14.75},"quat":{"i":0.0008,"j":-0.0324,"k":-0.0001,"r":0.9995},"euler":{"roll":0.09,"pitch":-3.71,"yaw":-0.01}}}
{"t":1762348418435,"d":{"mac":"2CCF67CB6518","lat":44.8317425,"lon":11.2240092,"sats":9,"qual":5,"speedKmh":0.1,"ts":"251104131338","receivedAt":1762348418435,"accel":{"x":0.012,"y":0.004,"z":-0.016},"gyro":{"x":0,"y":0,"z":0},"mag":{"x":24.19,"y":-58.88,"z":-13.06},"quat":{"i":0.0575,"j":-0.0158,"k":0.7005,"r":0.7111},"euler":{"roll":3.44,"pitch":-5.91,"yaw":88.96}}}
{"t":1762348418439,"d":{"mac":"2CCF679AF535","lat":44.8316793,"lon":11.224079,"sats":9,"qual":5,"speedKmh":0.3,"ts":"251105131338","receivedAt":1762348418439}}
{"t":1762348418447,"d":{"mac":"2CCF679AF52F","lat":44.8317403,"lon":11.224097,"sats":6,"qual":5,"speedKmh":0.3,"ts":"251105131338","receivedAt":1762348418447,"accel":{"x":0.004,"y":-0.004,"z":0.016},"gyro":{"x":0,"y":0,"z":0},"mag":{"x":16.56,"y":-41.12,"z":-15.81},"quat":{"i":0.0008,"j":-0.0324,"k":-0.0001,"r":0.9995},"euler":{"roll":0.09,"pitch":-3.71,"yaw":-0.01}}}
{"t":1762348418495,"d":{"mac":"2CCF67CB6518","lat":44.8317425,"lon":11.2240092,"sats":9,"qual":5,"speedKmh":0.1,"ts":"251104131338","receivedAt":1762348418495,"accel":{"x":0.012,"y":0.004,"z":-0.016},"gyro":{"x":0,"y":0,"z":0},"mag":{"x":23.88,"y":-58.94,"z":-12.38},"quat":{"i":0.0574,"j":-0.0158,"k":0.7005,"r":0.7111},"euler":{"roll":3.43,"pitch":-5.91,"yaw":88.96}}}
{"t":1762348418508,"d":{"mac":"2CCF679AF535","lat":44.8316795,"lon":11.2240788,"sats":9,"qual":5,"speedKmh":0.3,"ts":"251105131338","receivedAt":1762348418508}}
{"t":1762348418520,"d":{"mac":"2CCF679AF52F","lat":44.8317403,"lon":11.224097,"sats":6,"qual":5,"speedKmh":0.2,"ts":"251105131338","receivedAt":1762348418520,"accel":{"x":0.004,"y":-0.004,"z":-0.023},"gyro":{"x":0,"y":0,"z":0},"mag":{"x":16.06,"y":-41.94,"z":-15.75},"quat":{"i":0.0008,"j":-0.0324,"k":-0.0001,"r":0.9995},"euler":{"roll":0.09,"pitch":-3.71,"yaw":-0.01}}}
{"t":1762348418575,"d":{"mac":"2CCF67CB6518","lat":44.8317425,"lon":11.2240092,"sats":9,"qual":5,"speedKmh":0.1,"ts":"251104131338","receivedAt":1762348418575,"accel":{"x":0.004,"y":0.004,"z":-0.008},"gyro":{"x":0,"y":0,"z":0},"mag":{"x":24,"y":-58.88,"z":-14.56},"quat":{"i":0.0575,"j":-0.0158,"k":0.7005,"r":0.7111},"euler":{"roll":3.44,"pitch":-5.91,"yaw":88.96}}}
{"t":1762348418579,"d":{"mac":"2CCF679AF535","lat":44.8316795,"lon":11.2240787,"sats":9,"qual":5,"speedKmh":0.3,"ts":"251105131338","receivedAt":1762348418578}}
{"t":1762348418580,"d":{"mac":"2CCF679AF52F","lat":44.8317403,"lon":11.2240968,"sats":6,"qual":5,"speedKmh":0.2,"ts":"251105131338","receivedAt":1762348418580,"accel":{"x":0.004,"y":0.004,"z":0.016},"gyro":{"x":0,"y":0,"z":0},"mag":{"x":16.81,"y":-42.19,"z":-14.62},"quat":{"i":0.0008,"j":-0.0324,"k":-0.0001,"r":0.9995},"euler":{"roll":0.09,"pitch":-3.71,"yaw":-0.01}}}
{"t":1762348418635,"d":{"mac":"2CCF67CB6518","lat":44.8317425,"lon":11.2240092,"sats":9,"qual":5,"speedKmh":0.1,"ts":"251104131338","receivedAt":1762348418635,"accel":{"x":0.004,"y":0.004,"z":-0.008},"gyro":{"x":0,"y":0,"z":0},"mag":{"x":24.31,"y":-57.31,"z":-14},"quat":{"i":0.0575,"j":-0.0158,"k":0.7005,"r":0.7111},"euler":{"roll":3.44,"pitch":-5.91,"yaw":88.96}}}
{"t":1762348418638,"d":{"mac":"2CCF679AF535","lat":44.8316797,"lon":11.2240787,"sats":9,"qual":5,"speedKmh":0.2,"ts":"251105131338","receivedAt":1762348418638}}
{"t":1762348418640,"d":{"mac":"2CCF679AF52F","lat":44.8317403,"lon":11.2240967,"sats":6,"qual":5,"speedKmh":0.3,"ts":"251105131338","receivedAt":1762348418640,"accel":{"x":0.004,"y":0.004,"z":0.008},"gyro":{"x":0,"y":0,"z":0},"mag":{"x":17.62,"y":-42.5,"z":-14.88},"quat":{"i":0.0008,"j":-0.0324,"k":-0.0001,"r":0.9995},"euler":{"roll":0.09,"pitch":-3.71,"yaw":-0.01}}}
{"t":1762348418696,"d":{"mac":"2CCF67CB6518","lat":44.8317425,"lon":11.2240092,"sats":9,"qual":5,"speedKmh":0.1,"ts":"251104131338","receivedAt":1762348418695,"accel":{"x":0.004,"y":0.004,"z":-0.008},"gyro":{"x":0,"y":0,"z":0},"mag":{"x":24.5,"y":-60.5,"z":-13.94},"quat":{"i":0.0575,"j":-0.0159,"k":0.7005,"r":0.7111},"euler":{"roll":3.43,"pitch":-5.92,"yaw":88.96}}}
{"t":1762348418709,"d":{"mac":"2CCF679AF535","lat":44.8316797,"lon":11.2240785,"sats":9,"qual":5,"speedKmh":0.1,"ts":"251105131338","receivedAt":1762348418709}}
{"t":1762348418720,"d":{"mac":"2CCF679AF52F","lat":44.8317403,"lon":11.2240967,"sats":6,"qual":5,"speedKmh":0.1,"ts":"251105131338","receivedAt":1762348418720,"accel":{"x":0.004,"y":0.043,"z":0.008},"gyro":{"x":0,"y":0,"z":0},"mag":{"x":17.62,"y":-41.69,"z":-15},"quat":{"i":0.0007,"j":-0.0324,"k":-0.0001,"r":0.9995},"euler":{"roll":0.08,"pitch":-3.71,"yaw":-0.01}}}
{"t":1762348418779,"d":{"mac":"2CCF679AF535","lat":44.8316797,"lon":11.2240785,"sats":9,"qual":5,"speedKmh":0.1,"ts":"251105131338","receivedAt":1762348418778}}
{"t":1762348418783,"d":{"mac":"2CCF67CB6518","lat":44.8317425,"lon":11.2240092,"sats":9,"qual":5,"speedKmh":0.1,"ts":"251104131338","receivedAt":1762348418783,"accel":{"x":0.004,"y":0.004,"z":0.031},"gyro":{"x":0,"y":0,"z":0},"mag":{"x":23.06,"y":-58.38,"z":-13.94},"quat":{"i":0.0575,"j":-0.0159,"k":0.7005,"r":0.7111},"euler":{"roll":3.43,"pitch":-5.92,"yaw":88.96}}}
{"t":1762348418788,"d":{"mac":"2CCF679AF52F","lat":44.8317403,"lon":11.2240967,"sats":6,"qual":5,"speedKmh":0.1,"ts":"251105131338","receivedAt":1762348418788,"accel":{"x":0.004,"y":-0.004,"z":0.008},"gyro":{"x":0,"y":0,"z":0},"mag":{"x":17.31,"y":-40.94,"z":-14.44},"quat":{"i":0.0007,"j":-0.0324,"k":0,"r":0.9995},"euler":{"roll":0.08,"pitch":-3.71,"yaw":0}}}
{"t":1762348418837,"d":{"mac":"2CCF67CB6518","lat":44.8317425,"lon":11.2240092,"sats":9,"qual":5,"speedKmh":0,"ts":"251104131338","receivedAt":1762348418837,"accel":{"x":0.004,"y":0.004,"z":0.031},"gyro":{"x":0,"y":0,"z":0},"mag":{"x":23.06,"y":-59,"z":-13},"quat":{"i":0.0576,"j":-0.0159,"k":0.7005,"r":0.7111},"euler":{"roll":3.44,"pitch":-5.92,"yaw":88.96}}}
{"t":1762348418838,"d":{"mac":"2CCF679AF535","lat":44.8316798,"lon":11.2240785,"sats":9,"qual":5,"speedKmh":0.1,"ts":"251105131338","receivedAt":1762348418838}}
{"t":1762348418873,"d":{"mac":"2CCF679AF52F","lat":44.8317403,"lon":11.2240967,"sats":6,"qual":5,"speedKmh":0.2,"ts":"251105131338","receivedAt":1762348418873,"accel":{"x":0.004,"y":-0.004,"z":0.008},"gyro":{"x":0,"y":0,"z":0},"mag":{"x":17.31,"y":-40.88,"z":-14.62},"quat":{"i":0.0007,"j":-0.0324,"k":0,"r":0.9995},"euler":{"roll":0.08,"pitch":-3.71,"yaw":0}}}
{"t":1762348418898,"d":{"mac":"2CCF679AF535","lat":44.8316798,"lon":11.2240783,"sats":9,"qual":5,"speedKmh":0,"ts":"251105131338","receivedAt":1762348418898}}
{"t":1762348418902,"d":{"mac":"2CCF67CB6518","lat":44.8317425,"lon":11.2240092,"sats":9,"qual":5,"speedKmh":0.1,"ts":"251104131338","receivedAt":1762348418902,"accel":{"x":0.004,"y":0.004,"z":-0.008},"gyro":{"x":0,"y":0,"z":0},"mag":{"x":23.69,"y":-58.31,"z":-14.56},"quat":{"i":0.0576,"j":-0.0159,"k":0.7005,"r":0.7111},"euler":{"roll":3.44,"pitch":-5.92,"yaw":88.96}}}
{"t":1762348418929,"d":{"mac":"2CCF679AF52F","lat":44.8317403,"lon":11.2240967,"sats":6,"qual":5,"speedKmh":0.1,"ts":"251105131338","receivedAt":1762348418929,"accel":{"x":0.004,"y":0.004,"z":-0.031},"gyro":{"x":0,"y":0,"z":0},"mag":{"x":16.88,"y":-41.38,"z":-14.44},"quat":{"i":0.0007,"j":-0.0324,"k":0,"r":0.9995},"euler":{"roll":0.08,"pitch":-3.71,"yaw":0}}}
{"t":1762348418969,"d":{"mac":"2CCF679AF535","lat":44.83168,"lon":11.2240783,"sats":9,"qual":5,"speedKmh":0.3,"ts":"251105131338","receivedAt":1762348418969}}
{"t":1762348418973,"d":{"mac":"2CCF679AF52F","lat":44.8317403,"lon":11.2240967,"sats":6,"qual":5,"speedKmh":0.3,"ts":"251105131338","receivedAt":1762348418973,"accel":{"x":0.004,"y":0.043,"z":-0.023},"gyro":{"x":0,"y":0,"z":0},"mag":{"x":16.69,"y":-40.81,"z":-15.19},"quat":{"i":0.0007,"j":-0.0324,"k":0,"r":0.9995},"euler":{"roll":0.08,"pitch":-3.71,"yaw":0}}}
{"t":1762348418984,"d":{"mac":"2CCF67CB6518","lat":44.8317427,"lon":11.2240092,"sats":9,"qual":5,"speedKmh":0.3,"ts":"251104131338","receivedAt":1762348418984,"accel":{"x":0.012,"y":0.004,"z":-0.016},"gyro":{"x":0,"y":0,"z":0},"mag":{"x":24.88,"y":-57.81,"z":-14.31},"quat":{"i":0.0576,"j":-0.0159,"k":0.7005,"r":0.7111},"euler":{"roll":3.44,"pitch":-5.92,"yaw":88.96}}}
{"t":1762348419035,"d":{"mac":"2CCF67CB6518","lat":44.8317427,"lon":11.2240092,"sats":9,"qual":5,"speedKmh":0.2,"ts":"251104131338","receivedAt":1762348419035,"accel":{"x":0.012,"y":0.004,"z":-0.016},"gyro":{"x":0,"y":0,"z":0},"mag":{"x":24.81,"y":-58.88,"z":-13.38},"quat":{"i":0.0575,"j":-0.0159,"k":0.7005,"r":0.7111},"euler":{"roll":3.43,"pitch":-5.92,"yaw":88.96}}}
{"t":1762348419038,"d":{"mac":"2CCF679AF535","lat":44.8316803,"lon":11.2240782,"sats":9,"qual":5,"speedKmh":0.5,"ts":"251105131338","receivedAt":1762348419038}}
{"t":1762348419068,"d":{"mac":"2CCF679AF52F","lat":44.8317403,"lon":11.2240965,"sats":6,"qual":5,"speedKmh":0.2,"ts":"251105131338","receivedAt":1762348419068,"accel":{"x":0.004,"y":-0.004,"z":0.016},"gyro":{"x":0,"y":0,"z":0},"mag":{"x":17.38,"y":-40.44,"z":-14.5},"quat":{"i":0.0007,"j":-0.0324,"k":0,"r":0.9995},"euler":{"roll":0.08,"pitch":-3.71,"yaw":0}}}
{"t":1762348419099,"d":{"mac":"2CCF679AF535","lat":44.8316803,"lon":11.224078,"sats":9,"qual":5,"speedKmh":0.1,"ts":"251105131338","receivedAt":1762348419098}}
{"t":1762348419113,"d":{"mac":"2CCF679AF52F","lat":44.8317403,"lon":11.2240963,"sats":6,"qual":5,"speedKmh":0.2,"ts":"251105131339","receivedAt":1762348419113,"accel":{"x":0.004,"y":-0.004,"z":0.016},"gyro":{"x":0,"y":0,"z":0},"mag":{"x":18.25,"y":-40.94,"z":-14.12},"quat":{"i":0.0007,"j":-0.0324,"k":0,"r":0.9995},"euler":{"roll":0.08,"pitch":-3.71,"yaw":0}}}
{"t":1762348419127,"d":{"mac":"2CCF67CB6518","lat":44.8317425,"lon":11.2240093,"sats":9,"qual":5,"speedKmh":0.1,"ts":"251104131339","receivedAt":1762348419127,"accel":{"x":0.012,"y":0.004,"z":-0.016},"gyro":{"x":0,"y":0,"z":0},"mag":{"x":24.25,"y":-58.88,"z":-14.25},"quat":{"i":0.0575,"j":-0.0159,"k":0.7005,"r":0.7111},"euler":{"roll":3.43,"pitch":-5.92,"yaw":88.96}}}
{"t":1762348419169,"d":{"mac":"2CCF679AF535","lat":44.8316805,"lon":11.2240778,"sats":9,"qual":5,"speedKmh":0.3,"ts":"251105131339","receivedAt":1762348419169}}
{"t":1762348419173,"d":{"mac":"2CCF679AF52F","lat":44.8317403,"lon":11.2240965,"sats":6,"qual":5,"speedKmh":0.1,"ts":"251105131339","receivedAt":1762348419173,"accel":{"x":0.004,"y":0.035,"z":0.016},"gyro":{"x":0,"y":0,"z":0},"mag":{"x":17.5,"y":-42.88,"z":-15.31},"quat":{"i":0.0007,"j":-0.0324,"k":0,"r":0.9995},"euler":{"roll":0.08,"pitch":-3.71,"yaw":0}}}
{"t":1762348419175,"d":{"mac":"2CCF67CB6518","lat":44.8317423,"lon":11.2240093,"sats":9,"qual":5,"speedKmh":0.3,"ts":"251104131339","receivedAt":1762348419175,"accel":{"x":0.012,"y":0.004,"z":0.023},"gyro":{"x":0,"y":0,"z":0},"mag":{"x":23.38,"y":-58.94,"z":-13.62},"quat":{"i":0.0575,"j":-0.0159,"k":0.7005,"r":0.7111},"euler":{"roll":3.43,"pitch":-5.92,"yaw":88.96}}}
{"t":1762348419276,"d":{"mac":"2CCF67CB6518","lat":44.8317425,"lon":11.2240095,"sats":9,"qual":5,"speedKmh":0.2,"ts":"251104131339","receivedAt":1762348419275,"accel":{"x":0.012,"y":0.004,"z":0.023},"gyro":{"x":0,"y":0,"z":0},"mag":{"x":24.56,"y":-58.81,"z":-15.19},"quat":{"i":0.0575,"j":-0.0159,"k":0.7005,"r":0.7111},"euler":{"roll":3.43,"pitch":-5.92,"yaw":88.96}}}
{"t":1762348419278,"d":{"mac":"2CCF679AF535","lat":44.8316807,"lon":11.2240778,"sats":9,"qual":5,"speedKmh":0.3,"ts":"251105131339","receivedAt":1762348419278}}
{"t":1762348419288,"d":{"mac":"2CCF679AF535","lat":44.8316807,"lon":11.2240777,"sats":9,"qual":5,"speedKmh":0.2,"ts":"251105131339","receivedAt":1762348419288}}
{"t":1762348419296,"d":{"mac":"2CCF679AF52F","lat":44.8317403,"lon":11.2240965,"sats":6,"qual":5,"speedKmh":0.2,"ts":"251105131339","receivedAt":1762348419296,"accel":{"x":0.004,"y":-0.004,"z":0.016},"gyro":{"x":0,"y":0,"z":0},"mag":{"x":17.75,"y":-41.75,"z":-14.5},"quat":{"i":0.0007,"j":-0.0324,"k":0,"r":0.9995},"euler":{"roll":0.08,"pitch":-3.71,"yaw":0}}}
{"t":1762348419302,"d":{"mac":"2CCF67CB6518","lat":44.8317423,"lon":11.2240095,"sats":9,"qual":5,"speedKmh":0.2,"ts":"251104131339","receivedAt":1762348419302,"accel":{"x":0.012,"y":0.004,"z":-0.016},"gyro":{"x":0,"y":0,"z":0},"mag":{"x":23.31,"y":-59.5,"z":-13.31},"quat":{"i":0.0575,"j":-0.0158,"k":0.7005,"r":0.7111},"euler":{"roll":3.44,"pitch":-5.91,"yaw":88.96}}}
{"t":1762348419313,"d":{"mac":"2CCF679AF52F","lat":44.8317403,"lon":11.2240963,"sats":6,"qual":5,"speedKmh":0.2,"ts":"251105131339","receivedAt":1762348419313,"accel":{"x":0.004,"y":-0.004,"z":-0.031},"gyro":{"x":0,"y":0,"z":0},"mag":{"x":17.56,"y":-42,"z":-15.19},"quat":{"i":0.0007,"j":-0.0324,"k":0,"r":0.9995},"euler":{"roll":0.08,"pitch":-3.71,"yaw":0}}}
{"t":1762348419369,"d":{"mac":"2CCF679AF535","lat":44.8316808,"lon":11.2240775,"sats":9,"qual":5,"speedKmh":0.2,"ts":"251105131339","receivedAt":1762348419369}}
{"t":1762348419373,"d":{"mac":"2CCF679AF52F","lat":44.8317403,"lon":11.2240963,"sats":6,"qual":5,"speedKmh":0.1,"ts":"251105131339","receivedAt":1762348419373,"accel":{"x":0.004,"y":-0.004,"z":0.016},"gyro":{"x":0,"y":0,"z":0},"mag":{"x":16.75,"y":-41.75,"z":-14.88},"quat":{"i":0.0007,"j":-0.0324,"k":0,"r":0.9995},"euler":{"roll":0.08,"pitch":-3.71,"yaw":0}}}
{"t":1762348419375,"d":{"mac":"2CCF67CB6518","lat":44.8317425,"lon":11.2240097,"sats":9,"qual":5,"speedKmh":0.3,"ts":"251104131339","receivedAt":1762348419375,"accel":{"x":0.012,"y":0.004,"z":-0.016},"gyro":{"x":0,"y":0,"z":0},"mag":{"x":23.31,"y":-59.5,"z":-13.31},"quat":{"i":0.0575,"j":-0.0158,"k":0.7005,"r":0.7111},"euler":{"roll":3.44,"pitch":-5.91,"yaw":88.96}}}
{"t":1762348419429,"d":{"mac":"2CCF679AF535","lat":44.8316808,"lon":11.2240775,"sats":9,"qual":5,"speedKmh":0.2,"ts":"251105131339","receivedAt":1762348419428}}
{"t":1762348419435,"d":{"mac":"2CCF67CB6518","lat":44.8317423,"lon":11.2240097,"sats":9,"qual":5,"speedKmh":0,"ts":"251104131339","receivedAt":1762348419435,"accel":{"x":0.012,"y":0.004,"z":-0.016},"gyro":{"x":0,"y":0,"z":0},"mag":{"x":23.56,"y":-60.06,"z":-12.44},"quat":{"i":0.0574,"j":-0.0158,"k":0.7005,"r":0.7111},"euler":{"roll":3.43,"pitch":-5.91,"yaw":88.96}}}
{"t":1762348419453,"d":{"mac":"2CCF679AF52F","lat":44.8317403,"lon":11.2240963,"sats":6,"qual":5,"speedKmh":0.2,"ts":"251105131339","receivedAt":1762348419453,"accel":{"x":0.004,"y":-0.004,"z":0.016},"gyro":{"x":0,"y":0,"z":0},"mag":{"x":15.5,"y":-43.62,"z":-14.12},"quat":{"i":0.0007,"j":-0.0324,"k":0,"r":0.9995},"euler":{"roll":0.08,"pitch":-3.71,"yaw":0}}}
{"t":1762348419499,"d":{"mac":"2CCF679AF535","lat":44.831681,"lon":11.2240773,"sats":9,"qual":5,"speedKmh":0.4,"ts":"251105131339","receivedAt":1762348419498}}
{"t":1762348419522,"d":{"mac":"2CCF679AF52F","lat":44.8317405,"lon":11.2240962,"sats":6,"qual":5,"speedKmh":0.2,"ts":"251105131339","receivedAt":1762348419522,"accel":{"x":0.004,"y":-0.004,"z":0.016},"gyro":{"x":0,"y":0,"z":0},"mag":{"x":16.75,"y":-41.31,"z":-14.88},"quat":{"i":0.0007,"j":-0.0324,"k":0,"r":0.9995},"euler":{"roll":0.08,"pitch":-3.71,"yaw":0}}}
{"t":1762348419523,"d":{"mac":"2CCF67CB6518","lat":44.8317423,"lon":11.2240097,"sats":9,"qual":5,"speedKmh":0.1,"ts":"251104131339","receivedAt":1762348419523,"accel":{"x":0.012,"y":0.004,"z":-0.016},"gyro":{"x":0,"y":0,"z":0},"mag":{"x":24.88,"y":-58.25,"z":-14.31},"quat":{"i":0.0574,"j":-0.0158,"k":0.7005,"r":0.7111},"euler":{"roll":3.43,"pitch":-5.91,"yaw":88.96}}}
{"t":1762348419559,"d":{"mac":"2CCF679AF535","lat":44.8316812,"lon":11.2240772,"sats":9,"qual":5,"speedKmh":0.2,"ts":"251105131339","receivedAt":1762348419558}}
{"t":1762348419573,"d":{"mac":"2CCF679AF52F","lat":44.8317405,"lon":11.2240962,"sats":6,"qual":5,"speedKmh":0.2,"ts":"251105131339","receivedAt":1762348419573,"accel":{"x":0.004,"y":-0.004,"z":-0.023},"gyro":{"x":0,"y":0,"z":0},"mag":{"x":17.25,"y":-41.31,"z":-14.62},"quat":{"i":0.0007,"j":-0.0324,"k":0,"r":0.9995},"euler":{"roll":0.08,"pitch":-3.71,"yaw":0}}}
{"t":1762348419583,"d":{"mac":"2CCF67CB6518","lat":44.8317423,"lon":11.2240098,"sats":9,"qual":5,"speedKmh":0.1,"ts":"251104131339","receivedAt":1762348419583,"accel":{"x":0.012,"y":-0.035,"z":-0.016},"gyro":{"x":0,"y":0,"z":0},"mag":{"x":24.19,"y":-59.44,"z":-13.38},"quat":{"i":0.0574,"j":-0.0158,"k":0.7006,"r":0.7111},"euler":{"roll":3.43,"pitch":-5.91,"yaw":88.97}}}
{"t":1762348419629,"d":{"mac":"2CCF679AF535","lat":44.8316812,"lon":11.2240772,"sats":9,"qual":5,"speedKmh":0.3,"ts":"251105131339","receivedAt":1762348419629}}
{"t":1762348419633,"d":{"mac":"2CCF679AF52F","lat":44.8317403,"lon":11.2240962,"sats":6,"qual":5,"speedKmh":0,"ts":"251105131339","receivedAt":1762348419633,"accel":{"x":0.004,"y":-0.004,"z":0.008},"gyro":{"x":0,"y":0,"z":0},"mag":{"x":17.19,"y":-41.25,"z":-15.12},"quat":{"i":0.0007,"j":-0.0324,"k":0,"r":0.9995},"euler":{"roll":0.08,"pitch":-3.71,"yaw":0}}}
{"t":1762348419635,"d":{"mac":"2CCF67CB6518","lat":44.8317423,"lon":11.2240098,"sats":9,"qual":5,"speedKmh":0.2,"ts":"251104131339","receivedAt":1762348419635,"accel":{"x":0.004,"y":0.004,"z":0.031},"gyro":{"x":0,"y":0,"z":0},"mag":{"x":23.69,"y":-59.38,"z":-14.81},"quat":{"i":0.0574,"j":-0.0158,"k":0.7006,"r":0.7111},"euler":{"roll":3.43,"pitch":-5.91,"yaw":88.97}}}
{"t":1762348419699,"d":{"mac":"2CCF679AF535","lat":44.8316813,"lon":11.224077,"sats":9,"qual":5,"speedKmh":0.3,"ts":"251105131339","receivedAt":1762348419699}}
{"t":1762348419715,"d":{"mac":"2CCF67CB6518","lat":44.8317423,"lon":11.22401,"sats":9,"qual":5,"speedKmh":0.1,"ts":"251104131339","receivedAt":1762348419715,"accel":{"x":0.012,"y":0.004,"z":-0.016},"gyro":{"x":0,"y":0,"z":0},"mag":{"x":24.31,"y":-57.31,"z":-13.69},"quat":{"i":0.0574,"j":-0.0158,"k":0.7006,"r":0.7111},"euler":{"roll":3.43,"pitch":-5.91,"yaw":88.97}}}
{"t":1762348419720,"d":{"mac":"2CCF679AF52F","lat":44.8317403,"lon":11.224096,"sats":6,"qual":5,"speedKmh":0.1,"ts":"251105131339","receivedAt":1762348419720,"accel":{"x":0.004,"y":-0.004,"z":0.008},"gyro":{"x":0,"y":0,"z":0},"mag":{"x":16.69,"y":-42.06,"z":-15.06},"quat":{"i":0.0007,"j":-0.0324,"k":0,"r":0.9995},"euler":{"roll":0.08,"pitch":-3.71,"yaw":0}}}
{"t":1762348419759,"d":{"mac":"2CCF679AF535","lat":44.8316813,"lon":11.224077,"sats":9,"qual":5,"speedKmh":0.1,"ts":"251105131339","receivedAt":1762348419758}}
{"t":1762348419773,"d":{"mac":"2CCF679AF52F","lat":44.8317403,"lon":11.224096,"sats":6,"qual":5,"speedKmh":0,"ts":"251105131339","receivedAt":1762348419773,"accel":{"x":0.004,"y":-0.004,"z":-0.031},"gyro":{"x":0,"y":0,"z":0},"mag":{"x":16.25,"y":-41.69,"z":-15.12},"quat":{"i":0.0007,"j":-0.0324,"k":0,"r":0.9995},"euler":{"roll":0.08,"pitch":-3.71,"yaw":0}}}
{"t":1762348419783,"d":{"mac":"2CCF67CB6518","lat":44.8317422,"lon":11.22401,"sats":9,"qual":5,"speedKmh":0.1,"ts":"251104131339","receivedAt":1762348419783,"accel":{"x":0.004,"y":0.004,"z":-0.008},"gyro":{"x":0,"y":0,"z":0},"mag":{"x":24.5,"y":-58.88,"z":-13.69},"quat":{"i":0.0574,"j":-0.0158,"k":0.7006,"r":0.7111},"euler":{"roll":3.43,"pitch":-5.91,"yaw":88.97}}}
{"t":1762348419829,"d":{"mac":"2CCF679AF535","lat":44.8316815,"lon":11.2240768,"sats":9,"qual":5,"speedKmh":0.1,"ts":"251105131339","receivedAt":1762348419828}}
{"t":1762348419833,"d":{"mac":"2CCF679AF52F","lat":44.8317403,"lon":11.224096,"sats":6,"qual":5,"speedKmh":0.1,"ts":"251105131339","receivedAt":1762348419833,"accel":{"x":0.004,"y":0.004,"z":0.008},"gyro":{"x":0,"y":0,"z":0},"mag":{"x":17.12,"y":-41.62,"z":-15.25},"quat":{"i":0.0007,"j":-0.0324,"k":0,"r":0.9995},"euler":{"roll":0.08,"pitch":-3.71,"yaw":0}}}
{"t":1762348419835,"d":{"mac":"2CCF67CB6518","lat":44.8317423,"lon":11.2240102,"sats":9,"qual":5,"speedKmh":0.2,"ts":"251104131339","receivedAt":1762348419835,"accel":{"x":0.004,"y":0.004,"z":-0.008},"gyro":{"x":0,"y":0,"z":0},"mag":{"x":24.5,"y":-58.88,"z":-12.75},"quat":{"i":0.0574,"j":-0.0158,"k":0.7005,"r":0.7111},"euler":{"roll":3.43,"pitch":-5.91,"yaw":88.96}}}
