{"t":1762272494224,"d":{"mac":"2CCF679AF52F","lat":44.652396,"lon":10.7814113,"sats":11,"qual":5,"speedKmh":0.1,"ts":"251104160814","receivedAt":1762272494224,"accel":{"x":-0.035,"y":0,"z":0},"gyro":{"x":0,"y":0,"z":0},"mag":{"x":-2.19,"y":7.5,"z":-26.81},"quat":{"i":0.0099,"j":-0.0291,"k":-0.0799,"r":0.9963},"euler":{"roll":1.4,"pitch":-3.23,"yaw":-9.21}}}
{"t":1762272494249,"d":{"mac":"2D0853A819F8","lat":44.8308287,"lon":11.2229761,"sats":17,"qual":5,"speedKmh":58.3,"ts":"251104160814","receivedAt":1762272494249,"cpuTemp":41.9}}
{"t":1762272494249,"d":{"mac":"CEC81FB3647E","lat":44.8310672,"lon":11.2240061,"sats":19,"qual":9,"speedKmh":61.9,"ts":"251104160814","receivedAt":1762272494249,"cpuTemp":72.5}}
{"t":1762272494249,"d":{"mac":"2DA354655C1E","lat":44.8315174,"lon":11.223294,"sats":12,"qual":4,"speedKmh":42.8,"ts":"251104160814","receivedAt":1762272494249,"cpuTemp":66.3}}
{"t":1762272494249,"d":{"mac":"A395DCE4312A","lat":44.8306922,"lon":11.2232766,"sats":14,"qual":7,"speedKmh":66.1,"ts":"251104160814","receivedAt":1762272494249,"cpuTemp":41.2}}
{"t":1762272494250,"d":{"mac":"EA9142989C04","lat":44.8309982,"lon":11.2237854,"sats":18,"qual":8,"speedKmh":55.6,"ts":"251104160814","receivedAt":1762272494250,"cpuTemp":69.5}}
{"t":1762272494250,"d":{"mac":"8B33A72066DF","lat":44.8304798,"lon":11.2236607,"sats":20,"qual":4,"speedKmh":66.2,"ts":"251104160814","receivedAt":1762272494250,"cpuTemp":46.3}}
{"t":1762272494250,"d":{"mac":"421E4CF75DE7","lat":44.8316149,"lon":11.2239636,"sats":17,"qual":7,"speedKmh":69.6,"ts":"251104160814","receivedAt":1762272494250,"cpuTemp":47}}
{"t":1762272494250,"d":{"mac":"0C24633C9F02","lat":44.8309945,"lon":11.2231343,"sats":18,"qual":5,"speedKmh":66.1,"ts":"251104160814","receivedAt":1762272494250,"cpuTemp":72}}
{"t":1762272494250,"d":{"mac":"E462DD6EE488","lat":44.8311681,"lon":11.2240841,"sats":11,"qual":9,"speedKmh":62.8,"ts":"251104160814","receivedAt":1762272494250,"cpuTemp":45.6}}
{"t":1762272494250,"d":{"mac":"081438146791","lat":44.8313874,"lon":11.2237623,"sats":13,"qual":7,"speedKmh":58.4,"ts":"251104160814","receivedAt":1762272494250,"cpuTemp":55.8}}
{"t":1762272494250,"d":{"mac":"081BF382DE19","lat":44.8309824,"lon":11.2227481,"sats":11,"qual":7,"speedKmh":45.3,"ts":"251104160814","receivedAt":1762272494250,"cpuTemp":41.3}}
{"t":1762272494250,"d":{"mac":"43161D25AD8F","lat":44.831332,"lon":11.223372,"sats":14,"qual":9,"speedKmh":64.6,"ts":"251104160814","receivedAt":1762272494250,"cpuTemp":72.3}}
{"t":1762272494250,"d":{"mac":"6E59708A14C5","lat":44.8305331,"lon":11.2237578,"sats":13,"qual":9,"speedKmh":58.4,"ts":"251104160814","receivedAt":1762272494250,"cpuTemp":42.1}}
{"t":1762272494250,"d":{"mac":"A19B57D57EFA","lat":44.8306174,"lon":11.2226088,"sats":16,"qual":6,"speedKmh":52.7,"ts":"251104160814","receivedAt":1762272494250,"cpuTemp":51}}
{"t":1762272494250,"d":{"mac":"2E2B37C9995F","lat":44.8304276,"lon":11.2236858,"sats":16,"qual":8,"speedKmh":47.9,"ts":"251104160814","receivedAt":1762272494250,"cpuTemp":73.3}}
{"t":1762272494250,"d":{"mac":"A20B759753CE","lat":44.8310042,"lon":11.2227125,"sats":11,"qual":5,"speedKmh":36.7,"ts":"251104160814","receivedAt":1762272494250,"cpuTemp":51.2}}
{"t":1762272494250,"d":{"mac":"23BBF606B34C","lat":44.8310166,"lon":11.2238188,"sats":10,"qual":7,"speedKmh":56.5,"ts":"251104160814","receivedAt":1762272494250,"cpuTemp":68.5}}
{"t":1762272494250,"d":{"mac":"ED22C695F894","lat":44.8311068,"lon":11.2237033,"sats":10,"qual":9,"speedKmh":52.6,"ts":"251104160814","receivedAt":1762272494250,"cpuTemp":70.3}}
{"t":1762272494250,"d":{"mac":"20C829CEAAA5","lat":44.8309852,"lon":11.2230864,"sats":13,"qual":7,"speedKmh":62.5,"ts":"251104160814","receivedAt":1762272494250,"cpuTemp":43.9}}
{"t":1762272494250,"d":{"mac":"E1595225A892","lat":44.8309549,"lon":11.2233786,"sats":12,"qual":5,"speedKmh":57.7,"ts":"251104160814","receivedAt":1762272494250,"cpuTemp":71.4}}
{"t":1762272494250,"d":{"mac":"6DE88923FFA6","lat":44.8307193,"lon":11.2224727,"sats":14,"qual":9,"speedKmh":44.6,"ts":"251104160814","receivedAt":1762272494250,"cpuTemp":48.1}}
{"t":1762272494250,"d":{"mac":"85BC2E9C6B54","lat":44.8304456,"lon":11.2231741,"sats":15,"qual":9,"speedKmh":35.3,"ts":"251104160814","receivedAt":1762272494250,"cpuTemp":44.4}}
{"t":1762272494250,"d":{"mac":"2BC803FBDE91","lat":44.8311372,"lon":11.222457,"sats":20,"qual":5,"speedKmh":56.2,"ts":"251104160814","receivedAt":1762272494250,"cpuTemp":67.1}}
{"t":1762272494250,"d":{"mac":"E248724C62CF","lat":44.8317594,"lon":11.2234753,"sats":18,"qual":8,"speedKmh":60.5,"ts":"251104160814","receivedAt":1762272494250,"cpuTemp":58.1}}
{"t":1762272494250,"d":{"mac":"C05F465852AD","lat":44.8305744,"lon":11.2229359,"sats":12,"qual":9,"speedKmh":39,"ts":"251104160814","receivedAt":1762272494250,"cpuTemp":67.2}}
{"t":1762272494276,"d":{"mac":"2CCF679AF52F","lat":44.652396,"lon":10.7814113,"sats":11,"qual":5,"speedKmh":0.1,"ts":"251104160814","receivedAt":1762272494276,"accel":{"x":0.012,"y":0,"z":0},"gyro":{"x":0,"y":0,"z":0},"mag":{"x":-3.75,"y":8.44,"z":-28.06},"quat":{"i":0.0099,"j":-0.0291,"k":-0.08,"r":0.9963},"euler":{"roll":1.4,"pitch":-3.23,"yaw":-9.22}}}
{"t":1762272494316,"d":{"mac":"2D0853A819F8","lat":44.8308252,"lon":11.222989,"sats":17,"qual":5,"speedKmh":58.8,"ts":"251104160814","receivedAt":1762272494316,"cpuTemp":41.9}}
{"t":1762272494316,"d":{"mac":"CEC81FB3647E","lat":44.8310617,"lon":11.2239937,"sats":19,"qual":9,"speedKmh":62.1,"ts":"251104160814","receivedAt":1762272494316,"cpuTemp":72.5}}
{"t":1762272494316,"d":{"mac":"A395DCE4312A","lat":44.8306894,"lon":11.2232916,"sats":14,"qual":7,"speedKmh":66,"ts":"251104160814","receivedAt":1762272494316,"cpuTemp":41.2}}
{"t":1762272494316,"d":{"mac":"2DA354655C1E","lat":44.8315103,"lon":11.2232936,"sats":12,"qual":4,"speedKmh":42.9,"ts":"251104160814","receivedAt":1762272494316,"cpuTemp":66.3}}
{"t":1762272494316,"d":{"mac":"EA9142989C04","lat":44.831004,"lon":11.2237752,"sats":18,"qual":8,"speedKmh":55.9,"ts":"251104160814","receivedAt":1762272494316,"cpuTemp":69.5}}
{"t":1762272494316,"d":{"mac":"8B33A72066DF","lat":44.8304692,"lon":11.2236558,"sats":20,"qual":4,"speedKmh":66.9,"ts":"251104160814","receivedAt":1762272494316,"cpuTemp":46.3}}
{"t":1762272494316,"d":{"mac":"421E4CF75DE7","lat":44.8316086,"lon":11.2239774,"sats":17,"qual":7,"speedKmh":69.6,"ts":"251104160814","receivedAt":1762272494316,"cpuTemp":47}}
{"t":1762272494316,"d":{"mac":"0C24633C9F02","lat":44.8309982,"lon":11.2231197,"sats":18,"qual":5,"speedKmh":65.8,"ts":"251104160814","receivedAt":1762272494316,"cpuTemp":72}}
{"t":1762272494316,"d":{"mac":"E462DD6EE488","lat":44.8311587,"lon":11.2240776,"sats":11,"qual":9,"speedKmh":62.9,"ts":"251104160814","receivedAt":1762272494316,"cpuTemp":45.6}}
{"t":1762272494316,"d":{"mac":"081438146791","lat":44.8313942,"lon":11.223753,"sats":13,"qual":7,"speedKmh":57.5,"ts":"251104160814","receivedAt":1762272494316,"cpuTemp":55.8}}
{"t":1762272494316,"d":{"mac":"081BF382DE19","lat":44.8309769,"lon":11.2227409,"sats":11,"qual":7,"speedKmh":45.2,"ts":"251104160814","receivedAt":1762272494316,"cpuTemp":41.3}}
{"t":1762272494316,"d":{"mac":"43161D25AD8F","lat":44.8313218,"lon":11.2233768,"sats":14,"qual":9,"speedKmh":64.7,"ts":"251104160814","receivedAt":1762272494316,"cpuTemp":72.3}}
{"t":1762272494316,"d":{"mac":"6E59708A14C5","lat":44.8305237,"lon":11.2237543,"sats":13,"qual":9,"speedKmh":58.2,"ts":"251104160814","receivedAt":1762272494316,"cpuTemp":42.1}}
{"t":1762272494316,"d":{"mac":"A19B57D57EFA","lat":44.8306212,"lon":11.2225975,"sats":16,"qual":6,"speedKmh":52.9,"ts":"251104160814","receivedAt":1762272494316,"cpuTemp":51}}
{"t":1762272494317,"d":{"mac":"2E2B37C9995F","lat":44.8304201,"lon":11.2236823,"sats":16,"qual":8,"speedKmh":47.2,"ts":"251104160814","receivedAt":1762272494317,"cpuTemp":73.3}}
{"t":1762272494317,"d":{"mac":"A20B759753CE","lat":44.8309989,"lon":11.2227081,"sats":11,"qual":5,"speedKmh":36.9,"ts":"251104160814","receivedAt":1762272494317,"cpuTemp":51.2}}
{"t":1762272494317,"d":{"mac":"23BBF606B34C","lat":44.8310225,"lon":11.2238082,"sats":10,"qual":7,"speedKmh":56.9,"ts":"251104160814","receivedAt":1762272494317,"cpuTemp":68.5}}
{"t":1762272494317,"d":{"mac":"ED22C695F894","lat":44.8311153,"lon":11.2237003,"sats":10,"qual":9,"speedKmh":52.7,"ts":"251104160814","receivedAt":1762272494317,"cpuTemp":70.3}}
{"t":1762272494317,"d":{"mac":"20C829CEAAA5","lat":44.8309887,"lon":11.2230724,"sats":13,"qual":7,"speedKmh":63.1,"ts":"251104160814","receivedAt":1762272494317,"cpuTemp":43.9}}
{"t":1762272494317,"d":{"mac":"E1595225A892","lat":44.8309473,"lon":11.2233701,"sats":12,"qual":5,"speedKmh":57.7,"ts":"251104160814","receivedAt":1762272494317,"cpuTemp":71.4}}
{"t":1762272494317,"d":{"mac":"6DE88923FFA6","lat":44.8307226,"lon":11.2224634,"sats":14,"qual":9,"speedKmh":44.3,"ts":"251104160814","receivedAt":1762272494317,"cpuTemp":48.1}}
{"t":1762272494317,"d":{"mac":"85BC2E9C6B54","lat":44.830448,"lon":11.2231666,"sats":15,"qual":9,"speedKmh":35.3,"ts":"251104160814","receivedAt":1762272494317,"cpuTemp":44.4}}
{"t":1762272494317,"d":{"mac":"2BC803FBDE91","lat":44.8311461,"lon":11.2224616,"sats":20,"qual":5,"speedKmh":57,"ts":"251104160814","receivedAt":1762272494317,"cpuTemp":67.1}}
{"t":1762272494317,"d":{"mac":"E248724C62CF","lat":44.8317548,"lon":11.2234879,"sats":18,"qual":8,"speedKmh":60.2,"ts":"251104160814","receivedAt":1762272494317,"cpuTemp":58.1}}
{"t":1762272494317,"d":{"mac":"C05F465852AD","lat":44.8305771,"lon":11.2229275,"sats":12,"qual":9,"speedKmh":39.4,"ts":"251104160814","receivedAt":1762272494317,"cpuTemp":67.2}}
{"t":1762272494343,"d":{"mac":"2CCF679AF52F","lat":44.652396,"lon":10.7814113,"sats":11,"qual":5,"speedKmh":0.1,"ts":"251104160814","receivedAt":1762272494343,"accel":{"x":0.012,"y":0,"z":0},"gyro":{"x":0,"y":0,"z":0},"mag":{"x":-2.31,"y":9.38,"z":-27.75},"quat":{"i":0.0099,"j":-0.0291,"k":-0.08,"r":0.9963},"euler":{"roll":1.4,"pitch":-3.23,"yaw":-9.22}}}
{"t":1762272494382,"d":{"mac":"2D0853A819F8","lat":44.8308219,"lon":11.2230021,"sats":17,"qual":5,"speedKmh":59,"ts":"251104160814","receivedAt":1762272494382,"cpuTemp":41.9}}
{"t":1762272494383,"d":{"mac":"CEC81FB3647E","lat":44.8310571,"lon":11.2239808,"sats":19,"qual":9,"speedKmh":61.7,"ts":"251104160814","receivedAt":1762272494383,"cpuTemp":72.5}}
{"t":1762272494383,"d":{"mac":"2DA354655C1E","lat":44.831503,"lon":11.2232937,"sats":12,"qual":4,"speedKmh":43.7,"ts":"251104160814","receivedAt":1762272494383,"cpuTemp":66.3}}
{"t":1762272494383,"d":{"mac":"A395DCE4312A","lat":44.8306867,"lon":11.2233066,"sats":14,"qual":7,"speedKmh":65.5,"ts":"251104160814","receivedAt":1762272494383,"cpuTemp":41.2}}
{"t":1762272494383,"d":{"mac":"EA9142989C04","lat":44.8310106,"lon":11.2237659,"sats":18,"qual":8,"speedKmh":55.8,"ts":"251104160814","receivedAt":1762272494383,"cpuTemp":69.5}}
{"t":1762272494383,"d":{"mac":"8B33A72066DF","lat":44.8304587,"lon":11.2236507,"sats":20,"qual":4,"speedKmh":66.3,"ts":"251104160814","receivedAt":1762272494383,"cpuTemp":46.3}}
{"t":1762272494383,"d":{"mac":"421E4CF75DE7","lat":44.8316021,"lon":11.2239912,"sats":17,"qual":7,"speedKmh":70.4,"ts":"251104160814","receivedAt":1762272494383,"cpuTemp":47}}
{"t":1762272494383,"d":{"mac":"0C24633C9F02","lat":44.831002,"lon":11.223105,"sats":18,"qual":5,"speedKmh":66.3,"ts":"251104160814","receivedAt":1762272494383,"cpuTemp":72}}
{"t":1762272494383,"d":{"mac":"E462DD6EE488","lat":44.8311493,"lon":11.2240711,"sats":11,"qual":9,"speedKmh":62.6,"ts":"251104160814","receivedAt":1762272494383,"cpuTemp":45.6}}
{"t":1762272494383,"d":{"mac":"081438146791","lat":44.8314007,"lon":11.2237429,"sats":13,"qual":7,"speedKmh":57.5,"ts":"251104160814","receivedAt":1762272494383,"cpuTemp":55.8}}
{"t":1762272494383,"d":{"mac":"081BF382DE19","lat":44.8309712,"lon":11.2227341,"sats":11,"qual":7,"speedKmh":44.8,"ts":"251104160814","receivedAt":1762272494383,"cpuTemp":41.3}}
{"t":1762272494383,"d":{"mac":"43161D25AD8F","lat":44.8313114,"lon":11.2233816,"sats":14,"qual":9,"speedKmh":65.1,"ts":"251104160814","receivedAt":1762272494383,"cpuTemp":72.3}}
{"t":1762272494383,"d":{"mac":"6E59708A14C5","lat":44.8305143,"lon":11.2237508,"sats":13,"qual":9,"speedKmh":58.5,"ts":"251104160814","receivedAt":1762272494383,"cpuTemp":42.1}}
{"t":1762272494383,"d":{"mac":"A19B57D57EFA","lat":44.8306249,"lon":11.2225864,"sats":16,"qual":6,"speedKmh":52.3,"ts":"251104160814","receivedAt":1762272494383,"cpuTemp":51}}
{"t":1762272494383,"d":{"mac":"2E2B37C9995F","lat":44.8304125,"lon":11.2236787,"sats":16,"qual":8,"speedKmh":48,"ts":"251104160814","receivedAt":1762272494383,"cpuTemp":73.3}}
{"t":1762272494383,"d":{"mac":"A20B759753CE","lat":44.8309935,"lon":11.2227042,"sats":11,"qual":5,"speedKmh":36.7,"ts":"251104160814","receivedAt":1762272494383,"cpuTemp":51.2}}
{"t":1762272494383,"d":{"mac":"23BBF606B34C","lat":44.8310289,"lon":11.2237985,"sats":10,"qual":7,"speedKmh":56.8,"ts":"251104160814","receivedAt":1762272494383,"cpuTemp":68.5}}
{"t":1762272494383,"d":{"mac":"ED22C695F894","lat":44.831124,"lon":11.2236987,"sats":10,"qual":9,"speedKmh":52.5,"ts":"251104160814","receivedAt":1762272494383,"cpuTemp":70.3}}
{"t":1762272494383,"d":{"mac":"20C829CEAAA5","lat":44.8309921,"lon":11.2230585,"sats":13,"qual":7,"speedKmh":62.7,"ts":"251104160814","receivedAt":1762272494383,"cpuTemp":43.9}}
{"t":1762272494383,"d":{"mac":"E1595225A892","lat":44.8309404,"lon":11.2233608,"sats":12,"qual":5,"speedKmh":57.5,"ts":"251104160814","receivedAt":1762272494383,"cpuTemp":71.4}}
{"t":1762272494383,"d":{"mac":"6DE88923FFA6","lat":44.8307259,"lon":11.222454,"sats":14,"qual":9,"speedKmh":44.5,"ts":"251104160814","receivedAt":1762272494383,"cpuTemp":48.1}}
{"t":1762272494383,"d":{"mac":"85BC2E9C6B54","lat":44.8304505,"lon":11.223159,"sats":15,"qual":9,"speedKmh":35.3,"ts":"251104160814","receivedAt":1762272494383,"cpuTemp":44.4}}
{"t":1762272494383,"d":{"mac":"2BC803FBDE91","lat":44.831155,"lon":11.2224662,"sats":20,"qual":5,"speedKmh":57,"ts":"251104160814","receivedAt":1762272494383,"cpuTemp":67.1}}
{"t":1762272494384,"d":{"mac":"E248724C62CF","lat":44.8317502,"lon":11.2235006,"sats":18,"qual":8,"speedKmh":60.5,"ts":"251104160814","receivedAt":1762272494383,"cpuTemp":58.1}}
{"t":1762272494384,"d":{"mac":"C05F465852AD","lat":44.8305798,"lon":11.2229191,"sats":12,"qual":9,"speedKmh":38.9,"ts":"251104160814","receivedAt":1762272494384,"cpuTemp":67.2}}
{"t":1762272494415,"d":{"mac":"2CCF679AF52F","lat":44.652396,"lon":10.7814113,"sats":11,"qual":5,"speedKmh":0,"ts":"251104160814","receivedAt":1762272494415,"accel":{"x":0.004,"y":0,"z":0},"gyro":{"x":0,"y":0,"z":0},"mag":{"x":-2.81,"y":9.81,"z":-28.06},"quat":{"i":0.0099,"j":-0.0291,"k":-0.08,"r":0.9963},"euler":{"roll":1.4,"pitch":-3.23,"yaw":-9.22}}}
{"t":1762272494449,"d":{"mac":"2D0853A819F8","lat":44.8308187,"lon":11.223015,"sats":17,"qual":5,"speedKmh":58.4,"ts":"251104160814","receivedAt":1762272494449,"cpuTemp":41.9}}
{"t":1762272494449,"d":{"mac":"CEC81FB3647E","lat":44.8310531,"lon":11.2239674,"sats":19,"qual":9,"speedKmh":61.6,"ts":"251104160814","receivedAt":1762272494449,"cpuTemp":72.5}}
{"t":1762272494449,"d":{"mac":"2DA354655C1E","lat":44.8314959,"lon":11.2232942,"sats":12,"qual":4,"speedKmh":42.9,"ts":"251104160814","receivedAt":1762272494449,"cpuTemp":66.3}}
{"t":1762272494449,"d":{"mac":"A395DCE4312A","lat":44.8306841,"lon":11.2233217,"sats":14,"qual":7,"speedKmh":66.4,"ts":"251104160814","receivedAt":1762272494449,"cpuTemp":41.2}}
{"t":1762272494449,"d":{"mac":"EA9142989C04","lat":44.8310177,"lon":11.2237576,"sats":18,"qual":8,"speedKmh":55.1,"ts":"251104160814","receivedAt":1762272494449,"cpuTemp":69.5}}
{"t":1762272494449,"d":{"mac":"8B33A72066DF","lat":44.8304484,"lon":11.223645,"sats":20,"qual":4,"speedKmh":66.4,"ts":"251104160814","receivedAt":1762272494449,"cpuTemp":46.3}}
{"t":1762272494449,"d":{"mac":"421E4CF75DE7","lat":44.8315956,"lon":11.2240049,"sats":17,"qual":7,"speedKmh":70.3,"ts":"251104160814","receivedAt":1762272494449,"cpuTemp":47}}
{"t":1762272494449,"d":{"mac":"0C24633C9F02","lat":44.8310056,"lon":11.2230903,"sats":18,"qual":5,"speedKmh":66.4,"ts":"251104160814","receivedAt":1762272494449,"cpuTemp":72}}
{"t":1762272494450,"d":{"mac":"E462DD6EE488","lat":44.83114,"lon":11.2240646,"sats":11,"qual":9,"speedKmh":62.5,"ts":"251104160814","receivedAt":1762272494450,"cpuTemp":45.6}}
{"t":1762272494450,"d":{"mac":"081438146791","lat":44.8314073,"lon":11.2237331,"sats":13,"qual":7,"speedKmh":57.6,"ts":"251104160814","receivedAt":1762272494450,"cpuTemp":55.8}}
{"t":1762272494450,"d":{"mac":"081BF382DE19","lat":44.8309652,"lon":11.2227275,"sats":11,"qual":7,"speedKmh":45.5,"ts":"251104160814","receivedAt":1762272494450,"cpuTemp":41.3}}
{"t":1762272494450,"d":{"mac":"43161D25AD8F","lat":44.8313012,"lon":11.2233863,"sats":14,"qual":9,"speedKmh":64.4,"ts":"251104160814","receivedAt":1762272494450,"cpuTemp":72.3}}
{"t":1762272494450,"d":{"mac":"6E59708A14C5","lat":44.8305049,"lon":11.2237474,"sats":13,"qual":9,"speedKmh":58,"ts":"251104160814","receivedAt":1762272494450,"cpuTemp":42.1}}
{"t":1762272494450,"d":{"mac":"A19B57D57EFA","lat":44.8306287,"lon":11.2225752,"sats":16,"qual":6,"speedKmh":52.8,"ts":"251104160814","receivedAt":1762272494450,"cpuTemp":51}}
{"t":1762272494450,"d":{"mac":"2E2B37C9995F","lat":44.8304049,"lon":11.2236751,"sats":16,"qual":8,"speedKmh":48.1,"ts":"251104160814","receivedAt":1762272494450,"cpuTemp":73.3}}
{"t":1762272494450,"d":{"mac":"A20B759753CE","lat":44.8309878,"lon":11.2227008,"sats":11,"qual":5,"speedKmh":36.6,"ts":"251104160814","receivedAt":1762272494450,"cpuTemp":51.2}}
{"t":1762272494450,"d":{"mac":"23BBF606B34C","lat":44.8310359,"lon":11.2237898,"sats":10,"qual":7,"speedKmh":56.1,"ts":"251104160814","receivedAt":1762272494450,"cpuTemp":68.5}}
{"t":1762272494450,"d":{"mac":"ED22C695F894","lat":44.8311329,"lon":11.2236977,"sats":10,"qual":9,"speedKmh":53.2,"ts":"251104160814","receivedAt":1762272494450,"cpuTemp":70.3}}
{"t":1762272494450,"d":{"mac":"20C829CEAAA5","lat":44.8309953,"lon":11.2230445,"sats":13,"qual":7,"speedKmh":62.5,"ts":"251104160814","receivedAt":1762272494450,"cpuTemp":43.9}}
{"t":1762272494450,"d":{"mac":"E1595225A892","lat":44.8309342,"lon":11.2233506,"sats":12,"qual":5,"speedKmh":57.3,"ts":"251104160814","receivedAt":1762272494450,"cpuTemp":71.4}}
{"t":1762272494450,"d":{"mac":"6DE88923FFA6","lat":44.8307302,"lon":11.2224456,"sats":14,"qual":9,"speedKmh":44.3,"ts":"251104160814","receivedAt":1762272494450,"cpuTemp":48.1}}
{"t":1762272494450,"d":{"mac":"85BC2E9C6B54","lat":44.8304529,"lon":11.2231515,"sats":15,"qual":9,"speedKmh":34.8,"ts":"251104160814","receivedAt":1762272494450,"cpuTemp":44.4}}
{"t":1762272494450,"d":{"mac":"2BC803FBDE91","lat":44.8311638,"lon":11.222471,"sats":20,"qual":5,"speedKmh":56.4,"ts":"251104160814","receivedAt":1762272494450,"cpuTemp":67.1}}
{"t":1762272494450,"d":{"mac":"E248724C62CF","lat":44.8317456,"lon":11.2235131,"sats":18,"qual":8,"speedKmh":59.8,"ts":"251104160814","receivedAt":1762272494450,"cpuTemp":58.1}}
{"t":1762272494450,"d":{"mac":"C05F465852AD","lat":44.8305825,"lon":11.2229108,"sats":12,"qual":9,"speedKmh":38.8,"ts":"251104160814","receivedAt":1762272494450,"cpuTemp":67.2}}
{"t":1762272494474,"d":{"mac":"2CCF679AF52F","lat":44.652396,"lon":10.7814113,"sats":11,"qual":5,"speedKmh":0.1,"ts":"251104160814","receivedAt":1762272494474,"accel":{"x":0.004,"y":0,"z":0},"gyro":{"x":0,"y":0,"z":0},"mag":{"x":-3.62,"y":8.44,"z":-27.56},"quat":{"i":0.0099,"j":-0.0291,"k":-0.0801,"r":0.9963},"euler":{"roll":1.4,"pitch":-3.23,"yaw":-9.23}}}
{"t":1762272494516,"d":{"mac":"2D0853A819F8","lat":44.8308154,"lon":11.2230281,"sats":17,"qual":5,"speedKmh":58.8,"ts":"251104160814","receivedAt":1762272494516,"cpuTemp":41.9}}
{"t":1762272494516,"d":{"mac":"CEC81FB3647E","lat":44.8310501,"lon":11.2239533,"sats":19,"qual":9,"speedKmh":62.6,"ts":"251104160814","receivedAt":1762272494516,"cpuTemp":72.5}}
{"t":1762272494516,"d":{"mac":"2DA354655C1E","lat":44.8314886,"lon":11.2232952,"sats":12,"qual":4,"speedKmh":43.5,"ts":"251104160814","receivedAt":1762272494516,"cpuTemp":66.3}}
{"t":1762272494516,"d":{"mac":"A395DCE4312A","lat":44.8306814,"lon":11.2233367,"sats":14,"qual":7,"speedKmh":65.5,"ts":"251104160814","receivedAt":1762272494516,"cpuTemp":41.2}}
{"t":1762272494516,"d":{"mac":"EA9142989C04","lat":44.8310253,"lon":11.2237505,"sats":18,"qual":8,"speedKmh":55,"ts":"251104160814","receivedAt":1762272494516,"cpuTemp":69.5}}
{"t":1762272494516,"d":{"mac":"8B33A72066DF","lat":44.8304382,"lon":11.2236389,"sats":20,"qual":4,"speedKmh":66.6,"ts":"251104160814","receivedAt":1762272494516,"cpuTemp":46.3}}
{"t":1762272494517,"d":{"mac":"421E4CF75DE7","lat":44.8315892,"lon":11.2240185,"sats":17,"qual":7,"speedKmh":69.5,"ts":"251104160814","receivedAt":1762272494517,"cpuTemp":47}}
{"t":1762272494517,"d":{"mac":"0C24633C9F02","lat":44.8310093,"lon":11.2230756,"sats":18,"qual":5,"speedKmh":66.1,"ts":"251104160814","receivedAt":1762272494517,"cpuTemp":72}}
{"t":1762272494517,"d":{"mac":"E462DD6EE488","lat":44.8311306,"lon":11.2240581,"sats":11,"qual":9,"speedKmh":62.6,"ts":"251104160814","receivedAt":1762272494517,"cpuTemp":45.6}}
{"t":1762272494517,"d":{"mac":"081438146791","lat":44.8314141,"lon":11.2237234,"sats":13,"qual":7,"speedKmh":58,"ts":"251104160814","receivedAt":1762272494517,"cpuTemp":55.8}}
{"t":1762272494517,"d":{"mac":"081BF382DE19","lat":44.8309591,"lon":11.2227214,"sats":11,"qual":7,"speedKmh":45,"ts":"251104160814","receivedAt":1762272494517,"cpuTemp":41.3}}
{"t":1762272494517,"d":{"mac":"43161D25AD8F","lat":44.831291,"lon":11.2233911,"sats":14,"qual":9,"speedKmh":64.8,"ts":"251104160814","receivedAt":1762272494517,"cpuTemp":72.3}}
{"t":1762272494517,"d":{"mac":"6E59708A14C5","lat":44.8304956,"lon":11.2237438,"sats":13,"qual":9,"speedKmh":57.9,"ts":"251104160814","receivedAt":1762272494517,"cpuTemp":42.1}}
{"t":1762272494517,"d":{"mac":"A19B57D57EFA","lat":44.8306324,"lon":11.222564,"sats":16,"qual":6,"speedKmh":52.3,"ts":"251104160814","receivedAt":1762272494517,"cpuTemp":51}}
{"t":1762272494517,"d":{"mac":"2E2B37C9995F","lat":44.8303974,"lon":11.2236712,"sats":16,"qual":8,"speedKmh":47.9,"ts":"251104160814","receivedAt":1762272494517,"cpuTemp":73.3}}
{"t":1762272494517,"d":{"mac":"A20B759753CE","lat":44.8309819,"lon":11.2226993,"sats":11,"qual":5,"speedKmh":36.2,"ts":"251104160814","receivedAt":1762272494517,"cpuTemp":51.2}}
{"t":1762272494517,"d":{"mac":"23BBF606B34C","lat":44.8310436,"lon":11.2237822,"sats":10,"qual":7,"speedKmh":56.1,"ts":"251104160814","receivedAt":1762272494517,"cpuTemp":68.5}}
{"t":1762272494517,"d":{"mac":"ED22C695F894","lat":44.8311417,"lon":11.2236972,"sats":10,"qual":9,"speedKmh":53.2,"ts":"251104160814","receivedAt":1762272494517,"cpuTemp":70.3}}
{"t":1762272494517,"d":{"mac":"20C829CEAAA5","lat":44.8309984,"lon":11.2230303,"sats":13,"qual":7,"speedKmh":63.1,"ts":"251104160814","receivedAt":1762272494517,"cpuTemp":43.9}}
{"t":1762272494517,"d":{"mac":"E1595225A892","lat":44.8309285,"lon":11.2233397,"sats":12,"qual":5,"speedKmh":57.7,"ts":"251104160814","receivedAt":1762272494517,"cpuTemp":71.4}}
{"t":1762272494517,"d":{"mac":"6DE88923FFA6","lat":44.8307356,"lon":11.2224384,"sats":14,"qual":9,"speedKmh":44.8,"ts":"251104160814","receivedAt":1762272494517,"cpuTemp":48.1}}
{"t":1762272494517,"d":{"mac":"85BC2E9C6B54","lat":44.8304553,"lon":11.2231441,"sats":15,"qual":9,"speedKmh":35,"ts":"251104160814","receivedAt":1762272494517,"cpuTemp":44.4}}
{"t":1762272494517,"d":{"mac":"2BC803FBDE91","lat":44.8311726,"lon":11.2224759,"sats":20,"qual":5,"speedKmh":56.6,"ts":"251104160814","receivedAt":1762272494517,"cpuTemp":67.1}}
{"t":1762272494518,"d":{"mac":"E248724C62CF","lat":44.8317409,"lon":11.2235257,"sats":18,"qual":8,"speedKmh":60.6,"ts":"251104160814","receivedAt":1762272494518,"cpuTemp":58.1}}
{"t":1762272494518,"d":{"mac":"C05F465852AD","lat":44.8305852,"lon":11.2229024,"sats":12,"qual":9,"speedKmh":39.5,"ts":"251104160814","receivedAt":1762272494518,"cpuTemp":67.2}}
{"t":1762272494550,"d":{"mac":"2CCF679AF52F","lat":44.652396,"lon":10.7814113,"sats":11,"qual":5,"speedKmh":0.2,"ts":"251104160814","receivedAt":1762272494550,"accel":{"x":0.004,"y":0,"z":0},"gyro":{"x":0,"y":0,"z":0},"mag":{"x":-3.62,"y":7.5,"z":-27.56},"quat":{"i":0.0099,"j":-0.0291,"k":-0.0801,"r":0.9963},"euler":{"roll":1.4,"pitch":-3.23,"yaw":-9.23}}}
{"t":1762272494583,"d":{"mac":"2D0853A819F8","lat":44.8308122,"lon":11.2230411,"sats":17,"qual":5,"speedKmh":58.8,"ts":"251104160814","receivedAt":1762272494583,"cpuTemp":41.9}}
{"t":1762272494583,"d":{"mac":"CEC81FB3647E","lat":44.8310484,"lon":11.2239388,"sats":19,"qual":9,"speedKmh":62.5,"ts":"251104160814","receivedAt":1762272494583,"cpuTemp":72.5}}
{"t":1762272494583,"d":{"mac":"2DA354655C1E","lat":44.8314814,"lon":11.2232963,"sats":12,"qual":4,"speedKmh":43.7,"ts":"251104160814","receivedAt":1762272494583,"cpuTemp":66.3}}
{"t":1762272494583,"d":{"mac":"A395DCE4312A","lat":44.8306789,"lon":11.2233518,"sats":14,"qual":7,"speedKmh":66.3,"ts":"251104160814","receivedAt":1762272494583,"cpuTemp":41.2}}
{"t":1762272494583,"d":{"mac":"EA9142989C04","lat":44.8310335,"lon":11.2237445,"sats":18,"qual":8,"speedKmh":55.5,"ts":"251104160814","receivedAt":1762272494583,"cpuTemp":69.5}}
{"t":1762272494583,"d":{"mac":"421E4CF75DE7","lat":44.8315826,"lon":11.2240322,"sats":17,"qual":7,"speedKmh":70.2,"ts":"251104160814","receivedAt":1762272494583,"cpuTemp":47}}
{"t":1762272494583,"d":{"mac":"8B33A72066DF","lat":44.8304285,"lon":11.2236313,"sats":20,"qual":4,"speedKmh":66.6,"ts":"251104160814","receivedAt":1762272494583,"cpuTemp":46.3}}
{"t":1762272494583,"d":{"mac":"0C24633C9F02","lat":44.8310129,"lon":11.2230608,"sats":18,"qual":5,"speedKmh":66.6,"ts":"251104160814","receivedAt":1762272494583,"cpuTemp":72}}
{"t":1762272494584,"d":{"mac":"E462DD6EE488","lat":44.8311213,"lon":11.2240516,"sats":11,"qual":9,"speedKmh":62.4,"ts":"251104160814","receivedAt":1762272494584,"cpuTemp":45.6}}
{"t":1762272494584,"d":{"mac":"081438146791","lat":44.8314209,"lon":11.2237136,"sats":13,"qual":7,"speedKmh":58.4,"ts":"251104160814","receivedAt":1762272494584,"cpuTemp":55.8}}
{"t":1762272494584,"d":{"mac":"081BF382DE19","lat":44.8309526,"lon":11.2227161,"sats":11,"qual":7,"speedKmh":45,"ts":"251104160814","receivedAt":1762272494584,"cpuTemp":41.3}}
{"t":1762272494584,"d":{"mac":"43161D25AD8F","lat":44.8312807,"lon":11.2233959,"sats":14,"qual":9,"speedKmh":65.1,"ts":"251104160814","receivedAt":1762272494584,"cpuTemp":72.3}}
{"t":1762272494584,"d":{"mac":"6E59708A14C5","lat":44.8304863,"lon":11.2237401,"sats":13,"qual":9,"speedKmh":57.9,"ts":"251104160814","receivedAt":1762272494584,"cpuTemp":42.1}}
{"t":1762272494584,"d":{"mac":"A19B57D57EFA","lat":44.8306362,"lon":11.2225528,"sats":16,"qual":6,"speedKmh":52.7,"ts":"251104160814","receivedAt":1762272494584,"cpuTemp":51}}
{"t":1762272494584,"d":{"mac":"2E2B37C9995F","lat":44.83039,"lon":11.2236669,"sats":16,"qual":8,"speedKmh":47.9,"ts":"251104160814","receivedAt":1762272494584,"cpuTemp":73.3}}
{"t":1762272494584,"d":{"mac":"A20B759753CE","lat":44.8309759,"lon":11.2226983,"sats":11,"qual":5,"speedKmh":36.3,"ts":"251104160814","receivedAt":1762272494584,"cpuTemp":51.2}}
{"t":1762272494584,"d":{"mac":"23BBF606B34C","lat":44.8310519,"lon":11.2237757,"sats":10,"qual":7,"speedKmh":56.9,"ts":"251104160814","receivedAt":1762272494584,"cpuTemp":68.5}}
{"t":1762272494584,"d":{"mac":"ED22C695F894","lat":44.8311506,"lon":11.2236973,"sats":10,"qual":9,"speedKmh":53,"ts":"251104160814","receivedAt":1762272494584,"cpuTemp":70.3}}
{"t":1762272494584,"d":{"mac":"20C829CEAAA5","lat":44.8310016,"lon":11.2230161,"sats":13,"qual":7,"speedKmh":63.3,"ts":"251104160814","receivedAt":1762272494584,"cpuTemp":43.9}}
{"t":1762272494584,"d":{"mac":"E1595225A892","lat":44.8309233,"lon":11.2233283,"sats":12,"qual":5,"speedKmh":57.6,"ts":"251104160814","receivedAt":1762272494584,"cpuTemp":71.4}}
{"t":1762272494584,"d":{"mac":"6DE88923FFA6","lat":44.8307415,"lon":11.222432,"sats":14,"qual":9,"speedKmh":44.7,"ts":"251104160814","receivedAt":1762272494584,"cpuTemp":48.1}}
{"t":1762272494584,"d":{"mac":"85BC2E9C6B54","lat":44.8304578,"lon":11.2231365,"sats":15,"qual":9,"speedKmh":35.3,"ts":"251104160814","receivedAt":1762272494584,"cpuTemp":44.4}}
{"t":1762272494584,"d":{"mac":"2BC803FBDE91","lat":44.8311814,"lon":11.2224808,"sats":20,"qual":5,"speedKmh":56.9,"ts":"251104160814","receivedAt":1762272494584,"cpuTemp":67.1}}
{"t":1762272494585,"d":{"mac":"E248724C62CF","lat":44.8317363,"lon":11.2235383,"sats":18,"qual":8,"speedKmh":60.2,"ts":"251104160814","receivedAt":1762272494585,"cpuTemp":58.1}}
{"t":1762272494585,"d":{"mac":"C05F465852AD","lat":44.8305879,"lon":11.222894,"sats":12,"qual":9,"speedKmh":39.1,"ts":"251104160814","receivedAt":1762272494585,"cpuTemp":67.2}}
{"t":1762272494614,"d":{"mac":"2CCF679AF52F","lat":44.652396,"lon":10.7814113,"sats":11,"qual":5,"speedKmh":0,"ts":"251104160814","receivedAt":1762272494613,"accel":{"x":-0.035,"y":0,"z":0},"gyro":{"x":0,"y":0,"z":0},"mag":{"x":-3.69,"y":8.38,"z":-27.81},"quat":{"i":0.0099,"j":-0.0291,"k":-0.0801,"r":0.9963},"euler":{"roll":1.4,"pitch":-3.23,"yaw":-9.23}}}
{"t":1762272494649,"d":{"mac":"2D0853A819F8","lat":44.830809,"lon":11.2230541,"sats":17,"qual":5,"speedKmh":58.6,"ts":"251104160814","receivedAt":1762272494649,"cpuTemp":41.9}}
{"t":1762272494650,"d":{"mac":"CEC81FB3647E","lat":44.8310485,"lon":11.2239242,"sats":19,"qual":9,"speedKmh":62.3,"ts":"251104160814","receivedAt":1762272494650,"cpuTemp":72.5}}
{"t":1762272494650,"d":{"mac":"A395DCE4312A","lat":44.8306772,"lon":11.2233671,"sats":14,"qual":7,"speedKmh":65.9,"ts":"251104160814","receivedAt":1762272494650,"cpuTemp":41.2}}
{"t":1762272494650,"d":{"mac":"2DA354655C1E","lat":44.8314743,"lon":11.2232976,"sats":12,"qual":4,"speedKmh":42.8,"ts":"251104160814","receivedAt":1762272494650,"cpuTemp":66.3}}
{"t":1762272494650,"d":{"mac":"EA9142989C04","lat":44.8310419,"lon":11.2237392,"sats":18,"qual":8,"speedKmh":55,"ts":"251104160814","receivedAt":1762272494650,"cpuTemp":69.5}}
{"t":1762272494650,"d":{"mac":"8B33A72066DF","lat":44.8304196,"lon":11.223622,"sats":20,"qual":4,"speedKmh":66.4,"ts":"251104160814","receivedAt":1762272494650,"cpuTemp":46.3}}
{"t":1762272494650,"d":{"mac":"421E4CF75DE7","lat":44.831576,"lon":11.2240458,"sats":17,"qual":7,"speedKmh":70.2,"ts":"251104160814","receivedAt":1762272494650,"cpuTemp":47}}
{"t":1762272494650,"d":{"mac":"0C24633C9F02","lat":44.8310164,"lon":11.2230461,"sats":18,"qual":5,"speedKmh":65.8,"ts":"251104160814","receivedAt":1762272494650,"cpuTemp":72}}
{"t":1762272494650,"d":{"mac":"E462DD6EE488","lat":44.831112,"lon":11.224045,"sats":11,"qual":9,"speedKmh":62.5,"ts":"251104160814","receivedAt":1762272494650,"cpuTemp":45.6}}
{"t":1762272494650,"d":{"mac":"081438146791","lat":44.8314279,"lon":11.223704,"sats":13,"qual":7,"speedKmh":58.4,"ts":"251104160814","receivedAt":1762272494650,"cpuTemp":55.8}}
{"t":1762272494650,"d":{"mac":"081BF382DE19","lat":44.8309457,"lon":11.222712,"sats":11,"qual":7,"speedKmh":45,"ts":"251104160814","receivedAt":1762272494650,"cpuTemp":41.3}}
{"t":1762272494650,"d":{"mac":"43161D25AD8F","lat":44.8312705,"lon":11.2234007,"sats":14,"qual":9,"speedKmh":64.4,"ts":"251104160814","receivedAt":1762272494650,"cpuTemp":72.3}}
{"t":1762272494650,"d":{"mac":"6E59708A14C5","lat":44.8304769,"lon":11.2237363,"sats":13,"qual":9,"speedKmh":58.6,"ts":"251104160814","receivedAt":1762272494650,"cpuTemp":42.1}}
{"t":1762272494650,"d":{"mac":"A19B57D57EFA","lat":44.8306399,"lon":11.2225417,"sats":16,"qual":6,"speedKmh":52.4,"ts":"251104160814","receivedAt":1762272494650,"cpuTemp":51}}
{"t":1762272494650,"d":{"mac":"2E2B37C9995F","lat":44.8303828,"lon":11.2236625,"sats":16,"qual":8,"speedKmh":47.3,"ts":"251104160814","receivedAt":1762272494650,"cpuTemp":73.3}}
{"t":1762272494650,"d":{"mac":"A20B759753CE","lat":44.8309698,"lon":11.2226977,"sats":11,"qual":5,"speedKmh":36.7,"ts":"251104160814","receivedAt":1762272494650,"cpuTemp":51.2}}
{"t":1762272494650,"d":{"mac":"23BBF606B34C","lat":44.8310605,"lon":11.2237701,"sats":10,"qual":7,"speedKmh":56.9,"ts":"251104160814","receivedAt":1762272494650,"cpuTemp":68.5}}
{"t":1762272494650,"d":{"mac":"ED22C695F894","lat":44.8311595,"lon":11.2236976,"sats":10,"qual":9,"speedKmh":53.3,"ts":"251104160814","receivedAt":1762272494650,"cpuTemp":70.3}}
{"t":1762272494650,"d":{"mac":"20C829CEAAA5","lat":44.8310043,"lon":11.2230018,"sats":13,"qual":7,"speedKmh":62.9,"ts":"251104160814","receivedAt":1762272494650,"cpuTemp":43.9}}
{"t":1762272494650,"d":{"mac":"E1595225A892","lat":44.8309188,"lon":11.2233164,"sats":12,"qual":5,"speedKmh":57.4,"ts":"251104160814","receivedAt":1762272494650,"cpuTemp":71.4}}
{"t":1762272494650,"d":{"mac":"6DE88923FFA6","lat":44.8307476,"lon":11.222426,"sats":14,"qual":9,"speedKmh":44.6,"ts":"251104160814","receivedAt":1762272494650,"cpuTemp":48.1}}
{"t":1762272494650,"d":{"mac":"85BC2E9C6B54","lat":44.8304602,"lon":11.2231289,"sats":15,"qual":9,"speedKmh":35.6,"ts":"251104160814","receivedAt":1762272494650,"cpuTemp":44.4}}
{"t":1762272494650,"d":{"mac":"2BC803FBDE91","lat":44.8311902,"lon":11.2224856,"sats":20,"qual":5,"speedKmh":56.8,"ts":"251104160814","receivedAt":1762272494650,"cpuTemp":67.1}}
{"t":1762272494650,"d":{"mac":"E248724C62CF","lat":44.8317316,"lon":11.2235509,"sats":18,"qual":8,"speedKmh":60.5,"ts":"251104160814","receivedAt":1762272494650,"cpuTemp":58.1}}
{"t":1762272494650,"d":{"mac":"C05F465852AD","lat":44.8305906,"lon":11.2228857,"sats":12,"qual":9,"speedKmh":38.8,"ts":"251104160814","receivedAt":1762272494650,"cpuTemp":67.2}}
{"t":1762272494680,"d":{"mac":"2CCF679AF52F","lat":44.652396,"lon":10.7814113,"sats":11,"qual":5,"speedKmh":0.2,"ts":"251104160814","receivedAt":1762272494680,"accel":{"x":-0.035,"y":0,"z":0},"gyro":{"x":0,"y":0,"z":0},"mag":{"x":-2.25,"y":9.31,"z":-27.5},"quat":{"i":0.0099,"j":-0.0291,"k":-0.0801,"r":0.9963},"euler":{"roll":1.4,"pitch":-3.23,"yaw":-9.23}}}
{"t":1762272494716,"d":{"mac":"2D0853A819F8","lat":44.8308057,"lon":11.2230672,"sats":17,"qual":5,"speedKmh":58.7,"ts":"251104160814","receivedAt":1762272494716,"cpuTemp":41.9}}
{"t":1762272494716,"d":{"mac":"CEC81FB3647E","lat":44.8310511,"lon":11.2239101,"sats":19,"qual":9,"speedKmh":61.8,"ts":"251104160814","receivedAt":1762272494716,"cpuTemp":72.5}}
{"t":1762272494717,"d":{"mac":"2DA354655C1E","lat":44.8314672,"lon":11.2232992,"sats":12,"qual":4,"speedKmh":42.9,"ts":"251104160814","receivedAt":1762272494717,"cpuTemp":66.3}}
{"t":1762272494717,"d":{"mac":"A395DCE4312A","lat":44.8306758,"lon":11.2233826,"sats":14,"qual":7,"speedKmh":66.1,"ts":"251104160814","receivedAt":1762272494717,"cpuTemp":41.2}}
{"t":1762272494717,"d":{"mac":"EA9142989C04","lat":44.8310506,"lon":11.2237343,"sats":18,"qual":8,"speedKmh":55.9,"ts":"251104160814","receivedAt":1762272494717,"cpuTemp":69.5}}
{"t":1762272494717,"d":{"mac":"8B33A72066DF","lat":44.830412,"lon":11.2236106,"sats":20,"qual":4,"speedKmh":66.8,"ts":"251104160814","receivedAt":1762272494717,"cpuTemp":46.3}}
{"t":1762272494717,"d":{"mac":"421E4CF75DE7","lat":44.8315694,"lon":11.2240594,"sats":17,"qual":7,"speedKmh":69.9,"ts":"251104160814","receivedAt":1762272494717,"cpuTemp":47}}
{"t":1762272494717,"d":{"mac":"0C24633C9F02","lat":44.8310196,"lon":11.2230312,"sats":18,"qual":5,"speedKmh":66.3,"ts":"251104160814","receivedAt":1762272494717,"cpuTemp":72}}
{"t":1762272494717,"d":{"mac":"E462DD6EE488","lat":44.8311027,"lon":11.2240384,"sats":11,"qual":9,"speedKmh":62.1,"ts":"251104160814","receivedAt":1762272494717,"cpuTemp":45.6}}
{"t":1762272494717,"d":{"mac":"081438146791","lat":44.8314348,"lon":11.2236944,"sats":13,"qual":7,"speedKmh":57.9,"ts":"251104160814","receivedAt":1762272494717,"cpuTemp":55.8}}
{"t":1762272494717,"d":{"mac":"081BF382DE19","lat":44.8309383,"lon":11.2227097,"sats":11,"qual":7,"speedKmh":45.3,"ts":"251104160814","receivedAt":1762272494717,"cpuTemp":41.3}}
{"t":1762272494717,"d":{"mac":"43161D25AD8F","lat":44.8312602,"lon":11.2234055,"sats":14,"qual":9,"speedKmh":64.9,"ts":"251104160814","receivedAt":1762272494717,"cpuTemp":72.3}}
{"t":1762272494717,"d":{"mac":"6E59708A14C5","lat":44.8304677,"lon":11.2237325,"sats":13,"qual":9,"speedKmh":57.8,"ts":"251104160814","receivedAt":1762272494717,"cpuTemp":42.1}}
{"t":1762272494717,"d":{"mac":"A19B57D57EFA","lat":44.8306437,"lon":11.2225305,"sats":16,"qual":6,"speedKmh":52.4,"ts":"251104160814","receivedAt":1762272494717,"cpuTemp":51}}
{"t":1762272494717,"d":{"mac":"2E2B37C9995F","lat":44.8303757,"lon":11.2236575,"sats":16,"qual":8,"speedKmh":47.6,"ts":"251104160814","receivedAt":1762272494717,"cpuTemp":73.3}}
{"t":1762272494717,"d":{"mac":"A20B759753CE","lat":44.8309637,"lon":11.2226976,"sats":11,"qual":5,"speedKmh":36.3,"ts":"251104160814","receivedAt":1762272494717,"cpuTemp":51.2}}
{"t":1762272494717,"d":{"mac":"23BBF606B34C","lat":44.8310693,"lon":11.223765,"sats":10,"qual":7,"speedKmh":56.9,"ts":"251104160814","receivedAt":1762272494717,"cpuTemp":68.5}}
{"t":1762272494717,"d":{"mac":"ED22C695F894","lat":44.8311682,"lon":11.2236981,"sats":10,"qual":9,"speedKmh":52.7,"ts":"251104160814","receivedAt":1762272494717,"cpuTemp":70.3}}
{"t":1762272494717,"d":{"mac":"20C829CEAAA5","lat":44.8310069,"lon":11.2229876,"sats":13,"qual":7,"speedKmh":62.5,"ts":"251104160814","receivedAt":1762272494717,"cpuTemp":43.9}}
{"t":1762272494717,"d":{"mac":"E1595225A892","lat":44.8309149,"lon":11.2233041,"sats":12,"qual":5,"speedKmh":57.1,"ts":"251104160814","receivedAt":1762272494717,"cpuTemp":71.4}}
{"t":1762272494717,"d":{"mac":"6DE88923FFA6","lat":44.8307538,"lon":11.2224202,"sats":14,"qual":9,"speedKmh":44.4,"ts":"251104160814","receivedAt":1762272494717,"cpuTemp":48.1}}
{"t":1762272494718,"d":{"mac":"85BC2E9C6B54","lat":44.8304627,"lon":11.2231214,"sats":15,"qual":9,"speedKmh":35.1,"ts":"251104160814","receivedAt":1762272494718,"cpuTemp":44.4}}
{"t":1762272494718,"d":{"mac":"2BC803FBDE91","lat":44.831199,"lon":11.2224905,"sats":20,"qual":5,"speedKmh":56.2,"ts":"251104160814","receivedAt":1762272494718,"cpuTemp":67.1}}
{"t":1762272494718,"d":{"mac":"E248724C62CF","lat":44.8317269,"lon":11.2235635,"sats":18,"qual":8,"speedKmh":60.6,"ts":"251104160814","receivedAt":1762272494718,"cpuTemp":58.1}}
{"t":1762272494718,"d":{"mac":"C05F465852AD","lat":44.8305933,"lon":11.2228772,"sats":12,"qual":9,"speedKmh":39.6,"ts":"251104160814","receivedAt":1762272494718,"cpuTemp":67.2}}
{"t":1762272494750,"d":{"mac":"2CCF679AF52F","lat":44.652396,"lon":10.7814112,"sats":11,"qual":5,"speedKmh":0.1,"ts":"251104160814","receivedAt":1762272494750,"accel":{"x":-0.027,"y":0,"z":0},"gyro":{"x":0,"y":0,"z":0},"mag":{"x":-3.62,"y":7.5,"z":-27.56},"quat":{"i":0.0099,"j":-0.0291,"k":-0.0801,"r":0.9963},"euler":{"roll":1.41,"pitch":-3.23,"yaw":-9.24}}}
{"t":1762272494783,"d":{"mac":"2D0853A819F8","lat":44.8308025,"lon":11.2230801,"sats":17,"qual":5,"speedKmh":58.3,"ts":"251104160814","receivedAt":1762272494783,"cpuTemp":41.9}}
{"t":1762272494783,"d":{"mac":"CEC81FB3647E","lat":44.8310553,"lon":11.2238968,"sats":19,"qual":9,"speedKmh":62.2,"ts":"251104160814","receivedAt":1762272494783,"cpuTemp":72.5}}
{"t":1762272494784,"d":{"mac":"2DA354655C1E","lat":44.8314602,"lon":11.2233011,"sats":12,"qual":4,"speedKmh":42.9,"ts":"251104160814","receivedAt":1762272494784,"cpuTemp":66.3}}
{"t":1762272494784,"d":{"mac":"A395DCE4312A","lat":44.8306746,"lon":11.2233979,"sats":14,"qual":7,"speedKmh":65.7,"ts":"251104160814","receivedAt":1762272494784,"cpuTemp":41.2}}
{"t":1762272494784,"d":{"mac":"EA9142989C04","lat":44.8310594,"lon":11.2237301,"sats":18,"qual":8,"speedKmh":55.9,"ts":"251104160814","receivedAt":1762272494784,"cpuTemp":69.5}}
{"t":1762272494784,"d":{"mac":"8B33A72066DF","lat":44.8304052,"lon":11.2235982,"sats":20,"qual":4,"speedKmh":66.7,"ts":"251104160814","receivedAt":1762272494784,"cpuTemp":46.3}}
{"t":1762272494784,"d":{"mac":"421E4CF75DE7","lat":44.8315626,"lon":11.2240728,"sats":17,"qual":7,"speedKmh":69.8,"ts":"251104160814","receivedAt":1762272494784,"cpuTemp":47}}
{"t":1762272494784,"d":{"mac":"0C24633C9F02","lat":44.8310229,"lon":11.2230164,"sats":18,"qual":5,"speedKmh":66.1,"ts":"251104160814","receivedAt":1762272494784,"cpuTemp":72}}
{"t":1762272494784,"d":{"mac":"E462DD6EE488","lat":44.8310933,"lon":11.2240318,"sats":11,"qual":9,"speedKmh":62.8,"ts":"251104160814","receivedAt":1762272494784,"cpuTemp":45.6}}
{"t":1762272494784,"d":{"mac":"081438146791","lat":44.8314416,"lon":11.223685,"sats":13,"qual":7,"speedKmh":57.4,"ts":"251104160814","receivedAt":1762272494784,"cpuTemp":55.8}}
{"t":1762272494784,"d":{"mac":"081BF382DE19","lat":44.8309308,"lon":11.2227086,"sats":11,"qual":7,"speedKmh":45.1,"ts":"251104160814","receivedAt":1762272494784,"cpuTemp":41.3}}
{"t":1762272494784,"d":{"mac":"43161D25AD8F","lat":44.8312499,"lon":11.2234103,"sats":14,"qual":9,"speedKmh":64.5,"ts":"251104160814","receivedAt":1762272494784,"cpuTemp":72.3}}
{"t":1762272494784,"d":{"mac":"6E59708A14C5","lat":44.8304584,"lon":11.2237287,"sats":13,"qual":9,"speedKmh":57.8,"ts":"251104160814","receivedAt":1762272494784,"cpuTemp":42.1}}
{"t":1762272494784,"d":{"mac":"A19B57D57EFA","lat":44.8306475,"lon":11.2225193,"sats":16,"qual":6,"speedKmh":52.9,"ts":"251104160814","receivedAt":1762272494784,"cpuTemp":51}}
{"t":1762272494784,"d":{"mac":"2E2B37C9995F","lat":44.830369,"lon":11.2236513,"sats":16,"qual":8,"speedKmh":47.9,"ts":"251104160814","receivedAt":1762272494784,"cpuTemp":73.3}}
{"t":1762272494784,"d":{"mac":"A20B759753CE","lat":44.8309576,"lon":11.2226978,"sats":11,"qual":5,"speedKmh":36.7,"ts":"251104160814","receivedAt":1762272494784,"cpuTemp":51.2}}
{"t":1762272494784,"d":{"mac":"23BBF606B34C","lat":44.8310782,"lon":11.2237606,"sats":10,"qual":7,"speedKmh":56.7,"ts":"251104160814","receivedAt":1762272494784,"cpuTemp":68.5}}
{"t":1762272494784,"d":{"mac":"ED22C695F894","lat":44.831177,"lon":11.2236991,"sats":10,"qual":9,"speedKmh":52.8,"ts":"251104160814","receivedAt":1762272494784,"cpuTemp":70.3}}
{"t":1762272494785,"d":{"mac":"20C829CEAAA5","lat":44.8310094,"lon":11.2229732,"sats":13,"qual":7,"speedKmh":63,"ts":"251104160814","receivedAt":1762272494785,"cpuTemp":43.9}}
{"t":1762272494785,"d":{"mac":"E1595225A892","lat":44.8309121,"lon":11.2232911,"sats":12,"qual":5,"speedKmh":57.9,"ts":"251104160814","receivedAt":1762272494785,"cpuTemp":71.4}}
{"t":1762272494785,"d":{"mac":"6DE88923FFA6","lat":44.8307601,"lon":11.2224145,"sats":14,"qual":9,"speedKmh":44.9,"ts":"251104160814","receivedAt":1762272494785,"cpuTemp":48.1}}
{"t":1762272494785,"d":{"mac":"85BC2E9C6B54","lat":44.8304651,"lon":11.2231139,"sats":15,"qual":9,"speedKmh":34.9,"ts":"251104160814","receivedAt":1762272494785,"cpuTemp":44.4}}
{"t":1762272494785,"d":{"mac":"2BC803FBDE91","lat":44.8312077,"lon":11.2224953,"sats":20,"qual":5,"speedKmh":56,"ts":"251104160814","receivedAt":1762272494785,"cpuTemp":67.1}}
{"t":1762272494785,"d":{"mac":"E248724C62CF","lat":44.8317223,"lon":11.223576,"sats":18,"qual":8,"speedKmh":60,"ts":"251104160814","receivedAt":1762272494785,"cpuTemp":58.1}}
{"t":1762272494785,"d":{"mac":"C05F465852AD","lat":44.8305961,"lon":11.2228688,"sats":12,"qual":9,"speedKmh":39.4,"ts":"251104160814","receivedAt":1762272494785,"cpuTemp":67.2}}
{"t":1762272494804,"d":{"mac":"2CCF679AF52F","lat":44.652396,"lon":10.7814113,"sats":11,"qual":5,"speedKmh":0.1,"ts":"251104160814","receivedAt":1762272494804,"accel":{"x":0.012,"y":0,"z":0},"gyro":{"x":0,"y":0,"z":0},"mag":{"x":-3.19,"y":8,"z":-27.5},"quat":{"i":0.0099,"j":-0.0291,"k":-0.0802,"r":0.9963},"euler":{"roll":1.41,"pitch":-3.23,"yaw":-9.24}}}
{"t":1762272494850,"d":{"mac":"2D0853A819F8","lat":44.8307993,"lon":11.2230933,"sats":17,"qual":5,"speedKmh":59.2,"ts":"251104160814","receivedAt":1762272494850,"cpuTemp":41.9}}
{"t":1762272494850,"d":{"mac":"CEC81FB3647E","lat":44.8310604,"lon":11.2238842,"sats":19,"qual":9,"speedKmh":61.8,"ts":"251104160814","receivedAt":1762272494850,"cpuTemp":72.5}}
{"t":1762272494850,"d":{"mac":"2DA354655C1E","lat":44.8314532,"lon":11.2233037,"sats":12,"qual":4,"speedKmh":43.4,"ts":"251104160814","receivedAt":1762272494850,"cpuTemp":66.3}}
{"t":1762272494850,"d":{"mac":"EA9142989C04","lat":44.8310683,"lon":11.2237261,"sats":18,"qual":8,"speedKmh":55.6,"ts":"251104160814","receivedAt":1762272494850,"cpuTemp":69.5}}
{"t":1762272494850,"d":{"mac":"A395DCE4312A","lat":44.8306775,"lon":11.2234129,"sats":14,"qual":7,"speedKmh":66,"ts":"251104160814","receivedAt":1762272494850,"cpuTemp":41.2}}
{"t":1762272494850,"d":{"mac":"8B33A72066DF","lat":44.8303997,"lon":11.2235847,"sats":20,"qual":4,"speedKmh":66.2,"ts":"251104160814","receivedAt":1762272494850,"cpuTemp":46.3}}
{"t":1762272494851,"d":{"mac":"421E4CF75DE7","lat":44.8315557,"lon":11.2240862,"sats":17,"qual":7,"speedKmh":70.3,"ts":"251104160814","receivedAt":1762272494851,"cpuTemp":47}}
{"t":1762272494851,"d":{"mac":"0C24633C9F02","lat":44.8310258,"lon":11.2230015,"sats":18,"qual":5,"speedKmh":65.7,"ts":"251104160814","receivedAt":1762272494851,"cpuTemp":72}}
{"t":1762272494851,"d":{"mac":"E462DD6EE488","lat":44.831084,"lon":11.2240251,"sats":11,"qual":9,"speedKmh":62.8,"ts":"251104160814","receivedAt":1762272494851,"cpuTemp":45.6}}
{"t":1762272494851,"d":{"mac":"081438146791","lat":44.8314485,"lon":11.2236754,"sats":13,"qual":7,"speedKmh":57.9,"ts":"251104160814","receivedAt":1762272494851,"cpuTemp":55.8}}
{"t":1762272494851,"d":{"mac":"081BF382DE19","lat":44.8309233,"lon":11.2227081,"sats":11,"qual":7,"speedKmh":45.1,"ts":"251104160814","receivedAt":1762272494851,"cpuTemp":41.3}}
{"t":1762272494851,"d":{"mac":"43161D25AD8F","lat":44.8312397,"lon":11.223415,"sats":14,"qual":9,"speedKmh":64.5,"ts":"251104160814","receivedAt":1762272494851,"cpuTemp":72.3}}
{"t":1762272494851,"d":{"mac":"6E59708A14C5","lat":44.8304491,"lon":11.2237247,"sats":13,"qual":9,"speedKmh":58.5,"ts":"251104160814","receivedAt":1762272494851,"cpuTemp":42.1}}
{"t":1762272494851,"d":{"mac":"A19B57D57EFA","lat":44.8306512,"lon":11.222508,"sats":16,"qual":6,"speedKmh":52.9,"ts":"251104160814","receivedAt":1762272494851,"cpuTemp":51}}
{"t":1762272494851,"d":{"mac":"2E2B37C9995F","lat":44.8303628,"lon":11.2236445,"sats":16,"qual":8,"speedKmh":47.5,"ts":"251104160814","receivedAt":1762272494851,"cpuTemp":73.3}}
{"t":1762272494851,"d":{"mac":"A20B759753CE","lat":44.8309515,"lon":11.2226982,"sats":11,"qual":5,"speedKmh":36.6,"ts":"251104160814","receivedAt":1762272494851,"cpuTemp":51.2}}
{"t":1762272494851,"d":{"mac":"23BBF606B34C","lat":44.8310872,"lon":11.2237565,"sats":10,"qual":7,"speedKmh":56.6,"ts":"251104160814","receivedAt":1762272494851,"cpuTemp":68.5}}
{"t":1762272494851,"d":{"mac":"ED22C695F894","lat":44.8311858,"lon":11.2237001,"sats":10,"qual":9,"speedKmh":52.4,"ts":"251104160814","receivedAt":1762272494851,"cpuTemp":70.3}}
{"t":1762272494851,"d":{"mac":"20C829CEAAA5","lat":44.8310114,"lon":11.2229587,"sats":13,"qual":7,"speedKmh":62.9,"ts":"251104160814","receivedAt":1762272494851,"cpuTemp":43.9}}
{"t":1762272494851,"d":{"mac":"E1595225A892","lat":44.8309101,"lon":11.2232779,"sats":12,"qual":5,"speedKmh":57.4,"ts":"251104160814","receivedAt":1762272494851,"cpuTemp":71.4}}
{"t":1762272494851,"d":{"mac":"6DE88923FFA6","lat":44.8307664,"lon":11.2224089,"sats":14,"qual":9,"speedKmh":44.3,"ts":"251104160814","receivedAt":1762272494851,"cpuTemp":48.1}}
{"t":1762272494851,"d":{"mac":"85BC2E9C6B54","lat":44.8304675,"lon":11.2231064,"sats":15,"qual":9,"speedKmh":35.2,"ts":"251104160814","receivedAt":1762272494851,"cpuTemp":44.4}}
{"t":1762272494851,"d":{"mac":"2BC803FBDE91","lat":44.8312165,"lon":11.2225001,"sats":20,"qual":5,"speedKmh":56.7,"ts":"251104160814","receivedAt":1762272494851,"cpuTemp":67.1}}
{"t":1762272494851,"d":{"mac":"E248724C62CF","lat":44.8317176,"lon":11.2235887,"sats":18,"qual":8,"speedKmh":60.4,"ts":"251104160814","receivedAt":1762272494851,"cpuTemp":58.1}}
{"t":1762272494851,"d":{"mac":"C05F465852AD","lat":44.8305988,"lon":11.2228603,"sats":12,"qual":9,"speedKmh":39.6,"ts":"251104160814","receivedAt":1762272494851,"cpuTemp":67.2}}
{"t":1762272494881,"d":{"mac":"2CCF679AF52F","lat":44.652396,"lon":10.7814112,"sats":11,"qual":5,"speedKmh":0.1,"ts":"251104160814","receivedAt":1762272494881,"accel":{"x":0.012,"y":0,"z":0},"gyro":{"x":0,"y":0,"z":0},"mag":{"x":-2.88,"y":7.19,"z":-27.88},"quat":{"i":0.0099,"j":-0.0291,"k":-0.0803,"r":0.9963},"euler":{"roll":1.41,"pitch":-3.23,"yaw":-9.25}}}
{"t":1762272494917,"d":{"mac":"2D0853A819F8","lat":44.8307962,"lon":11.2231065,"sats":17,"qual":5,"speedKmh":59,"ts":"251104160814","receivedAt":1762272494917,"cpuTemp":41.9}}
{"t":1762272494917,"d":{"mac":"CEC81FB3647E","lat":44.8310662,"lon":11.2238721,"sats":19,"qual":9,"speedKmh":61.9,"ts":"251104160814","receivedAt":1762272494917,"cpuTemp":72.5}}
{"t":1762272494917,"d":{"mac":"2DA354655C1E","lat":44.8314463,"lon":11.2233067,"sats":12,"qual":4,"speedKmh":42.9,"ts":"251104160814","receivedAt":1762272494917,"cpuTemp":66.3}}
{"t":1762272494917,"d":{"mac":"A395DCE4312A","lat":44.8306812,"lon":11.2234274,"sats":14,"qual":7,"speedKmh":65.6,"ts":"251104160814","receivedAt":1762272494917,"cpuTemp":41.2}}
{"t":1762272494917,"d":{"mac":"8B33A72066DF","lat":44.8303949,"lon":11.2235706,"sats":20,"qual":4,"speedKmh":66.6,"ts":"251104160814","receivedAt":1762272494917,"cpuTemp":46.3}}
{"t":1762272494917,"d":{"mac":"EA9142989C04","lat":44.8310772,"lon":11.2237228,"sats":18,"qual":8,"speedKmh":55.3,"ts":"251104160814","receivedAt":1762272494917,"cpuTemp":69.5}}
{"t":1762272494917,"d":{"mac":"421E4CF75DE7","lat":44.8315484,"lon":11.2240991,"sats":17,"qual":7,"speedKmh":70.3,"ts":"251104160814","receivedAt":1762272494917,"cpuTemp":47}}
{"t":1762272494917,"d":{"mac":"0C24633C9F02","lat":44.8310286,"lon":11.2229864,"sats":18,"qual":5,"speedKmh":66.1,"ts":"251104160814","receivedAt":1762272494917,"cpuTemp":72}}
{"t":1762272494917,"d":{"mac":"E462DD6EE488","lat":44.8310748,"lon":11.2240182,"sats":11,"qual":9,"speedKmh":62.1,"ts":"251104160814","receivedAt":1762272494917,"cpuTemp":45.6}}
{"t":1762272494917,"d":{"mac":"081438146791","lat":44.8314554,"lon":11.223666,"sats":13,"qual":7,"speedKmh":57.6,"ts":"251104160814","receivedAt":1762272494917,"cpuTemp":55.8}}
{"t":1762272494918,"d":{"mac":"081BF382DE19","lat":44.8309158,"lon":11.2227081,"sats":11,"qual":7,"speedKmh":44.9,"ts":"251104160814","receivedAt":1762272494918,"cpuTemp":41.3}}
{"t":1762272494918,"d":{"mac":"43161D25AD8F","lat":44.8312294,"lon":11.2234198,"sats":14,"qual":9,"speedKmh":65.2,"ts":"251104160814","receivedAt":1762272494918,"cpuTemp":72.3}}
{"t":1762272494918,"d":{"mac":"6E59708A14C5","lat":44.8304399,"lon":11.2237205,"sats":13,"qual":9,"speedKmh":57.8,"ts":"251104160814","receivedAt":1762272494918,"cpuTemp":42.1}}
{"t":1762272494918,"d":{"mac":"A19B57D57EFA","lat":44.830655,"lon":11.2224969,"sats":16,"qual":6,"speedKmh":52.3,"ts":"251104160814","receivedAt":1762272494918,"cpuTemp":51}}
{"t":1762272494918,"d":{"mac":"2E2B37C9995F","lat":44.8303573,"lon":11.2236365,"sats":16,"qual":8,"speedKmh":47.4,"ts":"251104160814","receivedAt":1762272494918,"cpuTemp":73.3}}
{"t":1762272494918,"d":{"mac":"A20B759753CE","lat":44.8309454,"lon":11.2226991,"sats":11,"qual":5,"speedKmh":36.6,"ts":"251104160814","receivedAt":1762272494918,"cpuTemp":51.2}}
{"t":1762272494918,"d":{"mac":"23BBF606B34C","lat":44.8310964,"lon":11.2237528,"sats":10,"qual":7,"speedKmh":57,"ts":"251104160814","receivedAt":1762272494918,"cpuTemp":68.5}}
{"t":1762272494918,"d":{"mac":"ED22C695F894","lat":44.8311945,"lon":11.2237011,"sats":10,"qual":9,"speedKmh":52.4,"ts":"251104160814","receivedAt":1762272494918,"cpuTemp":70.3}}
{"t":1762272494918,"d":{"mac":"20C829CEAAA5","lat":44.8310132,"lon":11.2229441,"sats":13,"qual":7,"speedKmh":62.6,"ts":"251104160814","receivedAt":1762272494918,"cpuTemp":43.9}}
{"t":1762272494918,"d":{"mac":"E1595225A892","lat":44.8309095,"lon":11.2232644,"sats":12,"qual":5,"speedKmh":57.4,"ts":"251104160814","receivedAt":1762272494918,"cpuTemp":71.4}}
{"t":1762272494918,"d":{"mac":"6DE88923FFA6","lat":44.8307728,"lon":11.2224035,"sats":14,"qual":9,"speedKmh":44.8,"ts":"251104160814","receivedAt":1762272494918,"cpuTemp":48.1}}
{"t":1762272494918,"d":{"mac":"85BC2E9C6B54","lat":44.8304699,"lon":11.2230989,"sats":15,"qual":9,"speedKmh":34.8,"ts":"251104160814","receivedAt":1762272494918,"cpuTemp":44.4}}
{"t":1762272494918,"d":{"mac":"2BC803FBDE91","lat":44.8312252,"lon":11.2225051,"sats":20,"qual":5,"speedKmh":56.4,"ts":"251104160814","receivedAt":1762272494918,"cpuTemp":67.1}}
{"t":1762272494918,"d":{"mac":"E248724C62CF","lat":44.831713,"lon":11.2236012,"sats":18,"qual":8,"speedKmh":60.1,"ts":"251104160814","receivedAt":1762272494918,"cpuTemp":58.1}}
{"t":1762272494918,"d":{"mac":"C05F465852AD","lat":44.8306015,"lon":11.2228519,"sats":12,"qual":9,"speedKmh":39.4,"ts":"251104160814","receivedAt":1762272494918,"cpuTemp":67.2}}
{"t":1762272494952,"d":{"mac":"2CCF679AF52F","lat":44.652396,"lon":10.7814112,"sats":11,"qual":5,"speedKmh":0.1,"ts":"251104160814","receivedAt":1762272494952,"accel":{"x":-0.027,"y":0,"z":0},"gyro":{"x":0,"y":0,"z":0},"mag":{"x":-2.44,"y":9.88,"z":-28.25},"quat":{"i":0.0099,"j":-0.0291,"k":-0.0803,"r":0.9963},"euler":{"roll":1.41,"pitch":-3.23,"yaw":-9.25}}}
{"t":1762272494984,"d":{"mac":"CEC81FB3647E","lat":44.8310726,"lon":11.2238606,"sats":19,"qual":9,"speedKmh":62.3,"ts":"251104160814","receivedAt":1762272494984,"cpuTemp":72.5}}
{"t":1762272494984,"d":{"mac":"2DA354655C1E","lat":44.8314395,"lon":11.2233097,"sats":12,"qual":4,"speedKmh":42.9,"ts":"251104160814","receivedAt":1762272494984,"cpuTemp":66.3}}
{"t":1762272494984,"d":{"mac":"2D0853A819F8","lat":44.8307931,"lon":11.2231195,"sats":17,"qual":5,"speedKmh":58.4,"ts":"251104160814","receivedAt":1762272494984,"cpuTemp":41.9}}
{"t":1762272494984,"d":{"mac":"A395DCE4312A","lat":44.830686,"lon":11.2234413,"sats":14,"qual":7,"speedKmh":66,"ts":"251104160814","receivedAt":1762272494984,"cpuTemp":41.2}}
{"t":1762272494984,"d":{"mac":"EA9142989C04","lat":44.8310864,"lon":11.2237211,"sats":18,"qual":8,"speedKmh":55.8,"ts":"251104160814","receivedAt":1762272494984,"cpuTemp":69.5}}
{"t":1762272494984,"d":{"mac":"8B33A72066DF","lat":44.8303913,"lon":11.2235559,"sats":20,"qual":4,"speedKmh":66,"ts":"251104160814","receivedAt":1762272494984,"cpuTemp":46.3}}
{"t":1762272494984,"d":{"mac":"421E4CF75DE7","lat":44.8315395,"lon":11.2241095,"sats":17,"qual":7,"speedKmh":69.7,"ts":"251104160814","receivedAt":1762272494984,"cpuTemp":47}}
{"t":1762272494984,"d":{"mac":"0C24633C9F02","lat":44.8310311,"lon":11.2229714,"sats":18,"qual":5,"speedKmh":65.7,"ts":"251104160814","receivedAt":1762272494984,"cpuTemp":72}}
{"t":1762272494985,"d":{"mac":"E462DD6EE488","lat":44.8310657,"lon":11.2240113,"sats":11,"qual":9,"speedKmh":62.4,"ts":"251104160814","receivedAt":1762272494985,"cpuTemp":45.6}}
{"t":1762272494985,"d":{"mac":"081438146791","lat":44.8314624,"lon":11.2236565,"sats":13,"qual":7,"speedKmh":57.9,"ts":"251104160814","receivedAt":1762272494985,"cpuTemp":55.8}}
{"t":1762272494985,"d":{"mac":"081BF382DE19","lat":44.8309084,"lon":11.2227086,"sats":11,"qual":7,"speedKmh":44.7,"ts":"251104160814","receivedAt":1762272494985,"cpuTemp":41.3}}
{"t":1762272494985,"d":{"mac":"43161D25AD8F","lat":44.831219,"lon":11.2234244,"sats":14,"qual":9,"speedKmh":65.2,"ts":"251104160814","receivedAt":1762272494985,"cpuTemp":72.3}}
{"t":1762272494985,"d":{"mac":"6E59708A14C5","lat":44.8304307,"lon":11.2237161,"sats":13,"qual":9,"speedKmh":58.1,"ts":"251104160814","receivedAt":1762272494985,"cpuTemp":42.1}}
{"t":1762272494985,"d":{"mac":"A19B57D57EFA","lat":44.8306589,"lon":11.2224858,"sats":16,"qual":6,"speedKmh":52.9,"ts":"251104160814","receivedAt":1762272494985,"cpuTemp":51}}
{"t":1762272494985,"d":{"mac":"2E2B37C9995F","lat":44.8303522,"lon":11.2236279,"sats":16,"qual":8,"speedKmh":47.5,"ts":"251104160814","receivedAt":1762272494985,"cpuTemp":73.3}}
{"t":1762272494985,"d":{"mac":"A20B759753CE","lat":44.8309394,"lon":11.2227003,"sats":11,"qual":5,"speedKmh":36.6,"ts":"251104160814","receivedAt":1762272494985,"cpuTemp":51.2}}
{"t":1762272494985,"d":{"mac":"23BBF606B34C","lat":44.8311058,"lon":11.2237511,"sats":10,"qual":7,"speedKmh":56.8,"ts":"251104160814","receivedAt":1762272494985,"cpuTemp":68.5}}
{"t":1762272494985,"d":{"mac":"ED22C695F894","lat":44.8312032,"lon":11.2237024,"sats":10,"qual":9,"speedKmh":52.5,"ts":"251104160814","receivedAt":1762272494985,"cpuTemp":70.3}}
{"t":1762272494985,"d":{"mac":"20C829CEAAA5","lat":44.8310142,"lon":11.2229294,"sats":13,"qual":7,"speedKmh":63.2,"ts":"251104160814","receivedAt":1762272494985,"cpuTemp":43.9}}
{"t":1762272494986,"d":{"mac":"6DE88923FFA6","lat":44.8307793,"lon":11.2223981,"sats":14,"qual":9,"speedKmh":45.2,"ts":"251104160814","receivedAt":1762272494986,"cpuTemp":48.1}}
{"t":1762272494986,"d":{"mac":"E1595225A892","lat":44.8309095,"lon":11.223251,"sats":12,"qual":5,"speedKmh":57,"ts":"251104160814","receivedAt":1762272494986,"cpuTemp":71.4}}
{"t":1762272494986,"d":{"mac":"85BC2E9C6B54","lat":44.8304724,"lon":11.2230914,"sats":15,"qual":9,"speedKmh":35.3,"ts":"251104160814","receivedAt":1762272494986,"cpuTemp":44.4}}
{"t":1762272494986,"d":{"mac":"E248724C62CF","lat":44.8317083,"lon":11.2236137,"sats":18,"qual":8,"speedKmh":59.7,"ts":"251104160814","receivedAt":1762272494986,"cpuTemp":58.1}}
{"t":1762272494986,"d":{"mac":"C05F465852AD","lat":44.8306043,"lon":11.2228434,"sats":12,"qual":9,"speedKmh":39.6,"ts":"251104160814","receivedAt":1762272494986,"cpuTemp":67.2}}
{"t":1762272494986,"d":{"mac":"2BC803FBDE91","lat":44.8312339,"lon":11.2225105,"sats":20,"qual":5,"speedKmh":56.8,"ts":"251104160814","receivedAt":1762272494986,"cpuTemp":67.1}}
{"t":1762272495014,"d":{"mac":"2CCF679AF52F","lat":44.652396,"lon":10.7814112,"sats":11,"qual":5,"speedKmh":0.1,"ts":"251104160814","receivedAt":1762272495014,"accel":{"x":-0.027,"y":0,"z":0},"gyro":{"x":0,"y":0,"z":0},"mag":{"x":-2.38,"y":8.06,"z":-27.69},"quat":{"i":0.0099,"j":-0.0291,"k":-0.0804,"r":0.9963},"euler":{"roll":1.41,"pitch":-3.23,"yaw":-9.27}}}
{"t":1762272495051,"d":{"mac":"2D0853A819F8","lat":44.83079,"lon":11.2231326,"sats":17,"qual":5,"speedKmh":58.9,"ts":"251104160815","receivedAt":1762272495050,"cpuTemp":41.9}}
{"t":1762272495051,"d":{"mac":"CEC81FB3647E","lat":44.8310797,"lon":11.22385,"sats":19,"qual":9,"speedKmh":61.9,"ts":"251104160815","receivedAt":1762272495051,"cpuTemp":72.5}}
{"t":1762272495051,"d":{"mac":"2DA354655C1E","lat":44.8314326,"lon":11.2233128,"sats":12,"qual":4,"speedKmh":43.3,"ts":"251104160815","receivedAt":1762272495051,"cpuTemp":66.3}}
{"t":1762272495051,"d":{"mac":"A395DCE4312A","lat":44.8306916,"lon":11.2234546,"sats":14,"qual":7,"speedKmh":65.7,"ts":"251104160815","receivedAt":1762272495051,"cpuTemp":41.2}}
{"t":1762272495051,"d":{"mac":"EA9142989C04","lat":44.8310956,"lon":11.22372,"sats":18,"qual":8,"speedKmh":55.2,"ts":"251104160815","receivedAt":1762272495051,"cpuTemp":69.5}}
{"t":1762272495051,"d":{"mac":"8B33A72066DF","lat":44.830388,"lon":11.223541,"sats":20,"qual":4,"speedKmh":66.5,"ts":"251104160815","receivedAt":1762272495051,"cpuTemp":46.3}}
{"t":1762272495051,"d":{"mac":"421E4CF75DE7","lat":44.8315292,"lon":11.2241173,"sats":17,"qual":7,"speedKmh":70.1,"ts":"251104160815","receivedAt":1762272495051,"cpuTemp":47}}
{"t":1762272495051,"d":{"mac":"0C24633C9F02","lat":44.8310332,"lon":11.222956,"sats":18,"qual":5,"speedKmh":66.5,"ts":"251104160815","receivedAt":1762272495051,"cpuTemp":72}}
{"t":1762272495051,"d":{"mac":"E462DD6EE488","lat":44.8310574,"lon":11.2240023,"sats":11,"qual":9,"speedKmh":62.9,"ts":"251104160815","receivedAt":1762272495051,"cpuTemp":45.6}}
{"t":1762272495051,"d":{"mac":"081438146791","lat":44.8314693,"lon":11.223647,"sats":13,"qual":7,"speedKmh":58.1,"ts":"251104160815","receivedAt":1762272495051,"cpuTemp":55.8}}
{"t":1762272495051,"d":{"mac":"081BF382DE19","lat":44.8309008,"lon":11.2227097,"sats":11,"qual":7,"speedKmh":45.4,"ts":"251104160815","receivedAt":1762272495051,"cpuTemp":41.3}}
