{"t":1762269951459,"d":{"mac":"2CCF679AF52F","lat":44.6523312,"lon":10.7814142,"sats":6,"qual":5,"speedKmh":0.1,"ts":"251104152551","receivedAt":1762269951455,"accel":{"x":-0.016,"y":0.008,"z":0.016},"gyro":{"x":-0.002,"y":0.0039,"z":0.002},"mag":{"x":-3.5,"y":9.81,"z":-27.5},"quat":{"i":0.0119,"j":-0.0256,"k":-0.0729,"r":0.9969},"euler":{"roll":1.58,"pitch":-2.83,"yaw":-8.4}}}
{"t":1762269951464,"d":{"mac":"2CCF679AF52F","lat":44.6523312,"lon":10.7814142,"sats":6,"qual":5,"speedKmh":0.2,"ts":"251104152551","receivedAt":1762269951460,"accel":{"x":0.035,"y":0.008,"z":-0.023},"gyro":{"x":0,"y":0,"z":-0.002},"mag":{"x":-1.94,"y":8.56,"z":-27.75},"quat":{"i":0.0119,"j":-0.0256,"k":-0.0728,"r":0.9969},"euler":{"roll":1.58,"pitch":-2.82,"yaw":-8.39}}}
{"t":1762269951519,"d":{"mac":"2CCF679AF52F","lat":44.6523312,"lon":10.7814143,"sats":6,"qual":5,"speedKmh":0.1,"ts":"251104152551","receivedAt":1762269951518,"accel":{"x":0,"y":0.008,"z":0.016},"gyro":{"x":-0.002,"y":0,"z":0},"mag":{"x":-2.19,"y":9.81,"z":-27.38},"quat":{"i":0.0118,"j":-0.0256,"k":-0.0728,"r":0.9969},"euler":{"roll":1.57,"pitch":-2.82,"yaw":-8.39}}}
{"t":1762269951578,"d":{"mac":"2CCF679AF52F","lat":44.6523312,"lon":10.7814143,"sats":6,"qual":5,"speedKmh":0.2,"ts":"251104152551","receivedAt":1762269951578,"accel":{"x":-0.008,"y":0,"z":-0.023},"gyro":{"x":-0.002,"y":-0.002,"z":0},"mag":{"x":-1.69,"y":7.75,"z":-27.94},"quat":{"i":0.0119,"j":-0.0256,"k":-0.0728,"r":0.9969},"euler":{"roll":1.58,"pitch":-2.83,"yaw":-8.39}}}
{"t":1762269951658,"d":{"mac":"2CCF679AF52F","lat":44.6523312,"lon":10.7814142,"sats":6,"qual":5,"speedKmh":0.1,"ts":"251104152551","receivedAt":1762269951658,"accel":{"x":-0.008,"y":0,"z":-0.016},"gyro":{"x":0,"y":0,"z":0},"mag":{"x":-1.75,"y":8,"z":-26.94},"quat":{"i":0.0119,"j":-0.0256,"k":-0.0726,"r":0.9969},"euler":{"roll":1.58,"pitch":-2.83,"yaw":-8.37}}}
{"t":1762269951718,"d":{"mac":"2CCF679AF52F","lat":44.6523312,"lon":10.7814142,"sats":6,"qual":5,"speedKmh":0.2,"ts":"251104152551","receivedAt":1762269951718,"accel":{"x":-0.008,"y":0,"z":0.023},"gyro":{"x":0,"y":0,"z":0},"mag":{"x":-2.94,"y":9.94,"z":-28.5},"quat":{"i":0.0119,"j":-0.0256,"k":-0.0725,"r":0.9969},"euler":{"roll":1.57,"pitch":-2.83,"yaw":-8.36}}}
{"t":1762269951798,"d":{"mac":"2CCF679AF52F","lat":44.6523312,"lon":10.7814143,"sats":6,"qual":5,"speedKmh":0.1,"ts":"251104152551","receivedAt":1762269951798,"accel":{"x":0.027,"y":0.008,"z":0.023},"gyro":{"x":0,"y":0,"z":0},"mag":{"x":-2.44,"y":8.56,"z":-28.06},"quat":{"i":0.0119,"j":-0.0256,"k":-0.0724,"r":0.9969},"euler":{"roll":1.57,"pitch":-2.83,"yaw":-8.35}}}
{"t":1762269951859,"d":{"mac":"2CCF679AF52F","lat":44.6523312,"lon":10.7814143,"sats":6,"qual":5,"speedKmh":0.2,"ts":"251104152551","receivedAt":1762269951858,"accel":{"x":-0.008,"y":0.008,"z":-0.016},"gyro":{"x":0,"y":0,"z":0},"mag":{"x":-2.56,"y":10,"z":-28.69},"quat":{"i":0.0119,"j":-0.0256,"k":-0.0723,"r":0.997},"euler":{"roll":1.57,"pitch":-2.83,"yaw":-8.34}}}
{"t":1762269951919,"d":{"mac":"2CCF679AF52F","lat":44.6523312,"lon":10.7814143,"sats":6,"qual":5,"speedKmh":0.1,"ts":"251104152551","receivedAt":1762269951918,"accel":{"x":-0.008,"y":0,"z":-0.016},"gyro":{"x":0,"y":0,"z":0},"mag":{"x":-2.69,"y":8.94,"z":-27.38},"quat":{"i":0.0119,"j":-0.0256,"k":-0.0721,"r":0.997},"euler":{"roll":1.57,"pitch":-2.83,"yaw":-8.32}}}
{"t":1762269951998,"d":{"mac":"2CCF679AF52F","lat":44.6523312,"lon":10.7814143,"sats":6,"qual":5,"speedKmh":0.1,"ts":"251104152551","receivedAt":1762269951998,"accel":{"x":-0.008,"y":0,"z":0.023},"gyro":{"x":0,"y":0,"z":0},"mag":{"x":-2.62,"y":7.81,"z":-28.5},"quat":{"i":0.0119,"j":-0.0256,"k":-0.072,"r":0.997},"euler":{"roll":1.57,"pitch":-2.83,"yaw":-8.3}}}
{"t":1762269952058,"d":{"mac":"2CCF679AF52F","lat":44.6523312,"lon":10.7814143,"sats":6,"qual":5,"speedKmh":0.1,"ts":"251104152551","receivedAt":1762269952058,"accel":{"x":-0.008,"y":-0.039,"z":0.023},"gyro":{"x":0,"y":0,"z":0},"mag":{"x":-3.06,"y":8.19,"z":-28.62},"quat":{"i":0.012,"j":-0.0257,"k":-0.0718,"r":0.997},"euler":{"roll":1.58,"pitch":-2.84,"yaw":-8.27}}}
{"t":1762269952118,"d":{"mac":"2CCF679AF52F","lat":44.6523312,"lon":10.7814142,"sats":6,"qual":5,"speedKmh":0.2,"ts":"251104152552","receivedAt":1762269952118,"accel":{"x":0.027,"y":0,"z":0.023},"gyro":{"x":0,"y":0,"z":0},"mag":{"x":-2.81,"y":7.62,"z":-27.56},"quat":{"i":0.012,"j":-0.0257,"k":-0.0717,"r":0.997},"euler":{"roll":1.58,"pitch":-2.84,"yaw":-8.26}}}
{"t":1762269952178,"d":{"mac":"2CCF679AF52F","lat":44.6523312,"lon":10.7814142,"sats":6,"qual":5,"speedKmh":0.1,"ts":"251104152552","receivedAt":1762269952178,"accel":{"x":-0.008,"y":-0.031,"z":-0.016},"gyro":{"x":0,"y":0,"z":0},"mag":{"x":-2.5,"y":7.75,"z":-28},"quat":{"i":0.012,"j":-0.0257,"k":-0.0715,"r":0.997},"euler":{"roll":1.58,"pitch":-2.84,"yaw":-8.25}}}
{"t":1762269952258,"d":{"mac":"2CCF679AF52F","lat":44.6523312,"lon":10.7814143,"sats":6,"qual":5,"speedKmh":0.1,"ts":"251104152552","receivedAt":1762269952258,"accel":{"x":0.027,"y":0.008,"z":0.023},"gyro":{"x":0,"y":0,"z":0},"mag":{"x":-2.06,"y":9.06,"z":-28.31},"quat":{"i":0.012,"j":-0.0257,"k":-0.0715,"r":0.9971},"euler":{"roll":1.58,"pitch":-2.84,"yaw":-8.24}}}
{"t":1762269952318,"d":{"mac":"2CCF679AF52F","lat":44.6523312,"lon":10.7814143,"sats":6,"qual":5,"speedKmh":0.1,"ts":"251104152552","receivedAt":1762269952318,"accel":{"x":-0.008,"y":-0.023,"z":-0.016},"gyro":{"x":0,"y":0,"z":0},"mag":{"x":-2.94,"y":9.5,"z":-28.44},"quat":{"i":0.012,"j":-0.0257,"k":-0.0712,"r":0.9971},"euler":{"roll":1.58,"pitch":-2.84,"yaw":-8.21}}}
{"t":1762269952378,"d":{"mac":"2CCF679AF52F","lat":44.6523312,"lon":10.7814143,"sats":6,"qual":5,"speedKmh":0.2,"ts":"251104152552","receivedAt":1762269952378,"accel":{"x":-0.008,"y":0.016,"z":0.023},"gyro":{"x":0,"y":0,"z":0},"mag":{"x":-3,"y":8.12,"z":-28.38},"quat":{"i":0.012,"j":-0.0257,"k":-0.0711,"r":0.9971},"euler":{"roll":1.58,"pitch":-2.84,"yaw":-8.2}}}
{"t":1762269952458,"d":{"mac":"2CCF679AF52F","lat":44.6523312,"lon":10.7814143,"sats":6,"qual":5,"speedKmh":0.2,"ts":"251104152552","receivedAt":1762269952458,"accel":{"x":-0.008,"y":0.016,"z":-0.016},"gyro":{"x":0,"y":0,"z":0},"mag":{"x":-3.56,"y":8.69,"z":-29.25},"quat":{"i":0.012,"j":-0.0257,"k":-0.0709,"r":0.9971},"euler":{"roll":1.58,"pitch":-2.84,"yaw":-8.18}}}
{"t":1762269952519,"d":{"mac":"2CCF679AF52F","lat":44.6523312,"lon":10.7814143,"sats":6,"qual":5,"speedKmh":0.1,"ts":"251104152552","receivedAt":1762269952519,"accel":{"x":-0.008,"y":0.016,"z":-0.016},"gyro":{"x":0,"y":0,"z":0},"mag":{"x":-2.38,"y":9.88,"z":-27.88},"quat":{"i":0.012,"j":-0.0257,"k":-0.0709,"r":0.9971},"euler":{"roll":1.58,"pitch":-2.84,"yaw":-8.17}}}
{"t":1762269952580,"d":{"mac":"2CCF679AF52F","lat":44.6523312,"lon":10.7814143,"sats":6,"qual":5,"speedKmh":0.1,"ts":"251104152552","receivedAt":1762269952579,"accel":{"x":-0.008,"y":0.008,"z":-0.016},"gyro":{"x":0,"y":0,"z":0},"mag":{"x":-2.62,"y":7.31,"z":-28.5},"quat":{"i":0.012,"j":-0.0257,"k":-0.0707,"r":0.9971},"euler":{"roll":1.58,"pitch":-2.84,"yaw":-8.16}}}
{"t":1762269952658,"d":{"mac":"2CCF679AF52F","lat":44.6523312,"lon":10.7814142,"sats":6,"qual":5,"speedKmh":0.2,"ts":"251104152552","receivedAt":1762269952658,"accel":{"x":-0.008,"y":0.008,"z":0.023},"gyro":{"x":0,"y":0,"z":0},"mag":{"x":-1.38,"y":8.44,"z":-26.94},"quat":{"i":0.012,"j":-0.0257,"k":-0.0707,"r":0.9971},"euler":{"roll":1.58,"pitch":-2.84,"yaw":-8.15}}}
{"t":1762269952719,"d":{"mac":"2CCF679AF52F","lat":44.6523312,"lon":10.7814143,"sats":6,"qual":5,"speedKmh":0.1,"ts":"251104152552","receivedAt":1762269952718,"accel":{"x":0.035,"y":0.008,"z":0.023},"gyro":{"x":0,"y":0,"z":0},"mag":{"x":-2,"y":9.25,"z":-26.25},"quat":{"i":0.012,"j":-0.0257,"k":-0.0706,"r":0.9971},"euler":{"roll":1.58,"pitch":-2.84,"yaw":-8.13}}}
{"t":1762269952778,"d":{"mac":"2CCF679AF52F","lat":44.6523312,"lon":10.7814143,"sats":6,"qual":5,"speedKmh":0.1,"ts":"251104152552","receivedAt":1762269952778,"accel":{"x":-0.008,"y":0.008,"z":-0.016},"gyro":{"x":0,"y":0,"z":0},"mag":{"x":-1.56,"y":8.56,"z":-27.69},"quat":{"i":0.012,"j":-0.0257,"k":-0.0705,"r":0.9971},"euler":{"roll":1.58,"pitch":-2.84,"yaw":-8.13}}}
{"t":1762269952858,"d":{"mac":"2CCF679AF52F","lat":44.6523312,"lon":10.7814145,"sats":6,"qual":5,"speedKmh":0.3,"ts":"251104152552","receivedAt":1762269952858,"accel":{"x":-0.008,"y":0.008,"z":0.023},"gyro":{"x":0,"y":0,"z":0},"mag":{"x":-3.5,"y":7.31,"z":-28.62},"quat":{"i":0.012,"j":-0.0257,"k":-0.0704,"r":0.9971},"euler":{"roll":1.58,"pitch":-2.84,"yaw":-8.11}}}
{"t":1762269952918,"d":{"mac":"2CCF679AF52F","lat":44.6523312,"lon":10.7814145,"sats":6,"qual":5,"speedKmh":0.1,"ts":"251104152552","receivedAt":1762269952918,"accel":{"x":-0.008,"y":-0.031,"z":0.023},"gyro":{"x":0,"y":0,"z":0},"mag":{"x":-2.88,"y":8.06,"z":-28.12},"quat":{"i":0.012,"j":-0.0257,"k":-0.0703,"r":0.9971},"euler":{"roll":1.58,"pitch":-2.84,"yaw":-8.11}}}
{"t":1762269952978,"d":{"mac":"2CCF679AF52F","lat":44.652331,"lon":10.7814143,"sats":6,"qual":5,"speedKmh":0.3,"ts":"251104152552","receivedAt":1762269952978,"accel":{"x":0,"y":0.008,"z":0.016},"gyro":{"x":0,"y":0,"z":0},"mag":{"x":-3.81,"y":7.69,"z":-28.19},"quat":{"i":0.012,"j":-0.0257,"k":-0.0701,"r":0.9971},"euler":{"roll":1.58,"pitch":-2.84,"yaw":-8.09}}}
{"t":1762269953058,"d":{"mac":"2CCF679AF52F","lat":44.652331,"lon":10.7814145,"sats":6,"qual":5,"speedKmh":0.1,"ts":"251104152552","receivedAt":1762269953058,"accel":{"x":0,"y":0.008,"z":0.016},"gyro":{"x":0,"y":0,"z":0},"mag":{"x":-2.25,"y":8,"z":-27.25},"quat":{"i":0.012,"j":-0.0257,"k":-0.0701,"r":0.9971},"euler":{"roll":1.58,"pitch":-2.84,"yaw":-8.08}}}
{"t":1762269953118,"d":{"mac":"2CCF679AF52F","lat":44.6523312,"lon":10.7814145,"sats":6,"qual":5,"speedKmh":0.1,"ts":"251104152553","receivedAt":1762269953118,"accel":{"x":0,"y":0.016,"z":-0.023},"gyro":{"x":-0.002,"y":0,"z":0},"mag":{"x":-2.44,"y":9.5,"z":-28.12},"quat":{"i":0.012,"j":-0.0257,"k":-0.0699,"r":0.9971},"euler":{"roll":1.58,"pitch":-2.84,"yaw":-8.06}}}
{"t":1762269953178,"d":{"mac":"2CCF679AF52F","lat":44.6523312,"lon":10.7814145,"sats":6,"qual":5,"speedKmh":0.1,"ts":"251104152553","receivedAt":1762269953178,"accel":{"x":-0.008,"y":0.016,"z":-0.016},"gyro":{"x":0.0039,"y":0,"z":-0.002},"mag":{"x":-2.56,"y":10,"z":-28.69},"quat":{"i":0.012,"j":-0.0257,"k":-0.0698,"r":0.9971},"euler":{"roll":1.58,"pitch":-2.84,"yaw":-8.05}}}
{"t":1762269953238,"d":{"mac":"2CCF679AF52F","lat":44.652331,"lon":10.7814143,"sats":6,"qual":5,"speedKmh":0.2,"ts":"251104152553","receivedAt":1762269953238,"accel":{"x":0.027,"y":0.016,"z":-0.016},"gyro":{"x":0.0039,"y":-0.0039,"z":0},"mag":{"x":-3.44,"y":7.25,"z":-28.38},"quat":{"i":0.0121,"j":-0.0257,"k":-0.0698,"r":0.9971},"euler":{"roll":1.59,"pitch":-2.84,"yaw":-8.04}}}
{"t":1762269953318,"d":{"mac":"2CCF679AF52F","lat":44.6523312,"lon":10.7814145,"sats":6,"qual":5,"speedKmh":0.1,"ts":"251104152553","receivedAt":1762269953318,"accel":{"x":0.027,"y":0.016,"z":-0.016},"gyro":{"x":0,"y":0,"z":0.0039},"mag":{"x":-3.31,"y":7.69,"z":-27.88},"quat":{"i":0.0121,"j":-0.0257,"k":-0.0697,"r":0.9972},"euler":{"roll":1.6,"pitch":-2.84,"yaw":-8.04}}}
{"t":1762269953378,"d":{"mac":"2CCF679AF52F","lat":44.6523312,"lon":10.7814145,"sats":6,"qual":5,"speedKmh":0.1,"ts":"251104152553","receivedAt":1762269953378,"accel":{"x":-0.008,"y":-0.031,"z":0.031},"gyro":{"x":-0.0039,"y":0.002,"z":0},"mag":{"x":-2.75,"y":8,"z":-27.56},"quat":{"i":0.0121,"j":-0.0257,"k":-0.0695,"r":0.9972},"euler":{"roll":1.59,"pitch":-2.84,"yaw":-8.02}}}
{"t":1762269953438,"d":{"mac":"2CCF679AF52F","lat":44.6523312,"lon":10.7814145,"sats":6,"qual":5,"speedKmh":0,"ts":"251104152553","receivedAt":1762269953438,"accel":{"x":-0.008,"y":0.008,"z":0.023},"gyro":{"x":0.0059,"y":-0.002,"z":0},"mag":{"x":-1.56,"y":8.06,"z":-27.38},"quat":{"i":0.0121,"j":-0.0258,"k":-0.0695,"r":0.9972},"euler":{"roll":1.59,"pitch":-2.85,"yaw":-8.01}}}
{"t":1762269953498,"d":{"mac":"2CCF679AF52F","lat":44.6523312,"lon":10.7814145,"sats":6,"qual":5,"speedKmh":0.1,"ts":"251104152553","receivedAt":1762269953498,"accel":{"x":0.027,"y":0.008,"z":0.023},"gyro":{"x":0,"y":0.0039,"z":0},"mag":{"x":-2.88,"y":8.06,"z":-28.12},"quat":{"i":0.0121,"j":-0.0257,"k":-0.0694,"r":0.9972},"euler":{"roll":1.59,"pitch":-2.84,"yaw":-8}}}
{"t":1762269953578,"d":{"mac":"2CCF679AF52F","lat":44.6523312,"lon":10.7814145,"sats":6,"qual":5,"speedKmh":0.1,"ts":"251104152553","receivedAt":1762269953578,"accel":{"x":0.027,"y":0.008,"z":0.016},"gyro":{"x":0,"y":0,"z":0},"mag":{"x":-2.88,"y":9,"z":-28.19},"quat":{"i":0.0121,"j":-0.0256,"k":-0.0693,"r":0.9972},"euler":{"roll":1.59,"pitch":-2.83,"yaw":-7.99}}}
{"t":1762269953639,"d":{"mac":"2CCF679AF52F","lat":44.652331,"lon":10.7814147,"sats":6,"qual":5,"speedKmh":0.2,"ts":"251104152553","receivedAt":1762269953638,"accel":{"x":-0.016,"y":0.008,"z":-0.023},"gyro":{"x":0.002,"y":-0.002,"z":0},"mag":{"x":-3.12,"y":8,"z":-27.38},"quat":{"i":0.0121,"j":-0.0257,"k":-0.0693,"r":0.9972},"euler":{"roll":1.59,"pitch":-2.84,"yaw":-7.99}}}
{"t":1762269953698,"d":{"mac":"2CCF679AF52F","lat":44.6523312,"lon":10.7814147,"sats":6,"qual":5,"speedKmh":0.1,"ts":"251104152553","receivedAt":1762269953698,"accel":{"x":-0.016,"y":0,"z":-0.016},"gyro":{"x":0,"y":0.002,"z":-0.002},"mag":{"x":-2.44,"y":9,"z":-28.12},"quat":{"i":0.012,"j":-0.0258,"k":-0.0692,"r":0.9972},"euler":{"roll":1.58,"pitch":-2.85,"yaw":-7.97}}}
{"t":1762269953778,"d":{"mac":"2CCF679AF52F","lat":44.6523312,"lon":10.7814147,"sats":6,"qual":5,"speedKmh":0.1,"ts":"251104152553","receivedAt":1762269953778,"accel":{"x":0.027,"y":0,"z":0.023},"gyro":{"x":0,"y":-0.002,"z":0},"mag":{"x":-3.38,"y":8.56,"z":-28.44},"quat":{"i":0.0121,"j":-0.0258,"k":-0.0692,"r":0.9972},"euler":{"roll":1.59,"pitch":-2.85,"yaw":-7.97}}}
{"t":1762269953845,"d":{"mac":"2CCF679AF52F","lat":44.6523312,"lon":10.7814148,"sats":6,"qual":5,"speedKmh":0.3,"ts":"251104152553","receivedAt":1762269953845,"accel":{"x":-0.016,"y":0,"z":0.023},"gyro":{"x":0.0039,"y":-0.002,"z":-0.002},"mag":{"x":-2.5,"y":8.12,"z":-28.06},"quat":{"i":0.0121,"j":-0.0258,"k":-0.0691,"r":0.9972},"euler":{"roll":1.59,"pitch":-2.85,"yaw":-7.97}}}
