{"t":1762272480290,"d":{"mac":"2CCF679AF52F","lat":44.6523962,"lon":10.7814112,"sats":12,"qual":5,"speedKmh":0.2,"ts":"251104160800","receivedAt":1762272480290,"accel":{"x":0.012,"y":0,"z":0},"gyro":{"x":0,"y":0,"z":0},"mag":{"x":-2.75,"y":9.31,"z":-27.75},"quat":{"i":0.0099,"j":-0.029,"k":-0.0854,"r":0.9958},"euler":{"roll":1.41,"pitch":-3.21,"yaw":-9.84}}}
{"t":1762272480291,"d":{"mac":"2D0853A819F8","lat":44.8310549,"lon":11.2238896,"sats":17,"qual":5,"speedKmh":58.6,"ts":"251104160800","receivedAt":1762272480291,"cpuTemp":41.9}}
{"t":1762272480291,"d":{"mac":"CEC81FB3647E","lat":44.8312955,"lon":11.2225992,"sats":19,"qual":9,"speedKmh":62,"ts":"251104160800","receivedAt":1762272480291,"cpuTemp":72.5}}
{"t":1762272480291,"d":{"mac":"2DA354655C1E","lat":44.8315919,"lon":11.2241194,"sats":12,"qual":4,"speedKmh":43.2,"ts":"251104160800","receivedAt":1762272480291,"cpuTemp":66.3}}
{"t":1762272480291,"d":{"mac":"A395DCE4312A","lat":44.8309916,"lon":11.2238729,"sats":14,"qual":7,"speedKmh":66.1,"ts":"251104160800","receivedAt":1762272480291,"cpuTemp":41.2}}
{"t":1762272480291,"d":{"mac":"EA9142989C04","lat":44.8313621,"lon":11.2228726,"sats":18,"qual":8,"speedKmh":55.7,"ts":"251104160800","receivedAt":1762272480291,"cpuTemp":69.5}}
{"t":1762272480291,"d":{"mac":"8B33A72066DF","lat":44.8315673,"lon":11.2234297,"sats":20,"qual":4,"speedKmh":66.8,"ts":"251104160800","receivedAt":1762272480291,"cpuTemp":46.3}}
{"t":1762272480291,"d":{"mac":"421E4CF75DE7","lat":44.8305992,"lon":11.2227949,"sats":17,"qual":7,"speedKmh":70,"ts":"251104160800","receivedAt":1762272480291,"cpuTemp":47}}
{"t":1762272480291,"d":{"mac":"0C24633C9F02","lat":44.8316326,"lon":11.2239602,"sats":18,"qual":5,"speedKmh":66.3,"ts":"251104160800","receivedAt":1762272480291,"cpuTemp":72}}
{"t":1762272480291,"d":{"mac":"E462DD6EE488","lat":44.8311439,"lon":11.2224999,"sats":11,"qual":9,"speedKmh":62.5,"ts":"251104160800","receivedAt":1762272480291,"cpuTemp":45.6}}
{"t":1762272480292,"d":{"mac":"081438146791","lat":44.8316751,"lon":11.2230164,"sats":13,"qual":7,"speedKmh":57.4,"ts":"251104160800","receivedAt":1762272480292,"cpuTemp":55.8}}
{"t":1762272480292,"d":{"mac":"081BF382DE19","lat":44.8311953,"lon":11.2237083,"sats":11,"qual":7,"speedKmh":44.6,"ts":"251104160800","receivedAt":1762272480292,"cpuTemp":41.3}}
{"t":1762272480292,"d":{"mac":"43161D25AD8F","lat":44.8318432,"lon":11.2233955,"sats":14,"qual":9,"speedKmh":65,"ts":"251104160800","receivedAt":1762272480292,"cpuTemp":72.3}}
{"t":1762272480292,"d":{"mac":"6E59708A14C5","lat":44.8314623,"lon":11.2232753,"sats":13,"qual":9,"speedKmh":57.8,"ts":"251104160800","receivedAt":1762272480292,"cpuTemp":42.1}}
{"t":1762272480292,"d":{"mac":"A19B57D57EFA","lat":44.8307634,"lon":11.222914,"sats":16,"qual":6,"speedKmh":52.4,"ts":"251104160800","receivedAt":1762272480292,"cpuTemp":51}}
{"t":1762272480292,"d":{"mac":"2E2B37C9995F","lat":44.8310002,"lon":11.2233751,"sats":16,"qual":8,"speedKmh":47.2,"ts":"251104160800","receivedAt":1762272480292,"cpuTemp":73.3}}
{"t":1762272480292,"d":{"mac":"A20B759753CE","lat":44.8315182,"lon":11.2235346,"sats":11,"qual":5,"speedKmh":36.6,"ts":"251104160800","receivedAt":1762272480292,"cpuTemp":51.2}}
{"t":1762272480292,"d":{"mac":"23BBF606B34C","lat":44.8313382,"lon":11.2228934,"sats":10,"qual":7,"speedKmh":56.5,"ts":"251104160800","receivedAt":1762272480292,"cpuTemp":68.5}}
{"t":1762272480292,"d":{"mac":"ED22C695F894","lat":44.8315701,"lon":11.2228679,"sats":10,"qual":9,"speedKmh":53,"ts":"251104160800","receivedAt":1762272480292,"cpuTemp":70.3}}
{"t":1762272480292,"d":{"mac":"20C829CEAAA5","lat":44.8315322,"lon":11.2241303,"sats":13,"qual":7,"speedKmh":63.1,"ts":"251104160800","receivedAt":1762272480292,"cpuTemp":43.9}}
{"t":1762272480292,"d":{"mac":"E1595225A892","lat":44.83151,"lon":11.2241003,"sats":12,"qual":5,"speedKmh":57.3,"ts":"251104160800","receivedAt":1762272480292,"cpuTemp":71.4}}
{"t":1762272480292,"d":{"mac":"6DE88923FFA6","lat":44.8307224,"lon":11.2234738,"sats":14,"qual":9,"speedKmh":44.3,"ts":"251104160800","receivedAt":1762272480292,"cpuTemp":48.1}}
{"t":1762272480292,"d":{"mac":"85BC2E9C6B54","lat":44.8307579,"lon":11.2230008,"sats":15,"qual":9,"speedKmh":35.2,"ts":"251104160800","receivedAt":1762272480292,"cpuTemp":44.4}}
{"t":1762272480292,"d":{"mac":"2BC803FBDE91","lat":44.8307629,"lon":11.2234597,"sats":20,"qual":5,"speedKmh":56.2,"ts":"251104160800","receivedAt":1762272480292,"cpuTemp":67.1}}
{"t":1762272480292,"d":{"mac":"E248724C62CF","lat":44.8305032,"lon":11.2229535,"sats":18,"qual":8,"speedKmh":60,"ts":"251104160800","receivedAt":1762272480292,"cpuTemp":58.1}}
{"t":1762272480292,"d":{"mac":"C05F465852AD","lat":44.8307891,"lon":11.2230894,"sats":12,"qual":9,"speedKmh":39.2,"ts":"251104160800","receivedAt":1762272480292,"cpuTemp":67.2}}
{"t":1762272480353,"d":{"mac":"2CCF679AF52F","lat":44.652396,"lon":10.781411,"sats":12,"qual":5,"speedKmh":0,"ts":"251104160800","receivedAt":1762272480353,"accel":{"x":-0.027,"y":0,"z":0},"gyro":{"x":0,"y":0,"z":0},"mag":{"x":-2.69,"y":7.5,"z":-27.12},"quat":{"i":0.0099,"j":-0.029,"k":-0.0855,"r":0.9958},"euler":{"roll":1.41,"pitch":-3.21,"yaw":-9.85}}}
{"t":1762272480354,"d":{"mac":"2D0853A819F8","lat":44.8310595,"lon":11.2238774,"sats":17,"qual":5,"speedKmh":58.4,"ts":"251104160800","receivedAt":1762272480354,"cpuTemp":41.9}}
{"t":1762272480354,"d":{"mac":"CEC81FB3647E","lat":44.8313025,"lon":11.2226097,"sats":19,"qual":9,"speedKmh":61.6,"ts":"251104160800","receivedAt":1762272480354,"cpuTemp":72.5}}
{"t":1762272480354,"d":{"mac":"2DA354655C1E","lat":44.8315879,"lon":11.2241277,"sats":12,"qual":4,"speedKmh":42.9,"ts":"251104160800","receivedAt":1762272480354,"cpuTemp":66.3}}
{"t":1762272480354,"d":{"mac":"A395DCE4312A","lat":44.830996,"lon":11.2238588,"sats":14,"qual":7,"speedKmh":65.6,"ts":"251104160800","receivedAt":1762272480354,"cpuTemp":41.2}}
{"t":1762272480354,"d":{"mac":"EA9142989C04","lat":44.8313712,"lon":11.2228736,"sats":18,"qual":8,"speedKmh":55.1,"ts":"251104160800","receivedAt":1762272480354,"cpuTemp":69.5}}
{"t":1762272480354,"d":{"mac":"8B33A72066DF","lat":44.8315708,"lon":11.2234149,"sats":20,"qual":4,"speedKmh":66.4,"ts":"251104160800","receivedAt":1762272480354,"cpuTemp":46.3}}
{"t":1762272480354,"d":{"mac":"421E4CF75DE7","lat":44.8306041,"lon":11.22278,"sats":17,"qual":7,"speedKmh":70.1,"ts":"251104160800","receivedAt":1762272480354,"cpuTemp":47}}
{"t":1762272480356,"d":{"mac":"0C24633C9F02","lat":44.8316269,"lon":11.2239736,"sats":18,"qual":5,"speedKmh":66.3,"ts":"251104160800","receivedAt":1762272480356,"cpuTemp":72}}
{"t":1762272480356,"d":{"mac":"081438146791","lat":44.8316834,"lon":11.2230235,"sats":13,"qual":7,"speedKmh":58.3,"ts":"251104160800","receivedAt":1762272480356,"cpuTemp":55.8}}
{"t":1762272480356,"d":{"mac":"081BF382DE19","lat":44.8312027,"lon":11.2237096,"sats":11,"qual":7,"speedKmh":44.6,"ts":"251104160800","receivedAt":1762272480356,"cpuTemp":41.3}}
{"t":1762272480356,"d":{"mac":"6E59708A14C5","lat":44.8314527,"lon":11.2232751,"sats":13,"qual":9,"speedKmh":57.7,"ts":"251104160800","receivedAt":1762272480356,"cpuTemp":42.1}}
{"t":1762272480356,"d":{"mac":"43161D25AD8F","lat":44.8318387,"lon":11.2234093,"sats":14,"qual":9,"speedKmh":64.7,"ts":"251104160800","receivedAt":1762272480356,"cpuTemp":72.3}}
{"t":1762272480356,"d":{"mac":"A19B57D57EFA","lat":44.8307602,"lon":11.2229256,"sats":16,"qual":6,"speedKmh":52.8,"ts":"251104160800","receivedAt":1762272480356,"cpuTemp":51}}
{"t":1762272480356,"d":{"mac":"2E2B37C9995F","lat":44.8309925,"lon":11.2233723,"sats":16,"qual":8,"speedKmh":47.5,"ts":"251104160800","receivedAt":1762272480356,"cpuTemp":73.3}}
{"t":1762272480356,"d":{"mac":"A20B759753CE","lat":44.8315225,"lon":11.2235285,"sats":11,"qual":5,"speedKmh":36.8,"ts":"251104160800","receivedAt":1762272480356,"cpuTemp":51.2}}
{"t":1762272480356,"d":{"mac":"23BBF606B34C","lat":44.8313475,"lon":11.2228956,"sats":10,"qual":7,"speedKmh":56.4,"ts":"251104160800","receivedAt":1762272480356,"cpuTemp":68.5}}
{"t":1762272480356,"d":{"mac":"ED22C695F894","lat":44.8315789,"lon":11.2228691,"sats":10,"qual":9,"speedKmh":52.6,"ts":"251104160800","receivedAt":1762272480356,"cpuTemp":70.3}}
{"t":1762272480356,"d":{"mac":"E1595225A892","lat":44.8315047,"lon":11.2241114,"sats":12,"qual":5,"speedKmh":57.1,"ts":"251104160800","receivedAt":1762272480356,"cpuTemp":71.4}}
{"t":1762272480356,"d":{"mac":"20C829CEAAA5","lat":44.831526,"lon":11.2241423,"sats":13,"qual":7,"speedKmh":63.2,"ts":"251104160800","receivedAt":1762272480356,"cpuTemp":43.9}}
{"t":1762272480357,"d":{"mac":"6DE88923FFA6","lat":44.8307265,"lon":11.2234826,"sats":14,"qual":9,"speedKmh":44.8,"ts":"251104160800","receivedAt":1762272480357,"cpuTemp":48.1}}
{"t":1762272480357,"d":{"mac":"85BC2E9C6B54","lat":44.830756,"lon":11.2230087,"sats":15,"qual":9,"speedKmh":35.5,"ts":"251104160800","receivedAt":1762272480357,"cpuTemp":44.4}}
{"t":1762272480357,"d":{"mac":"2BC803FBDE91","lat":44.8307688,"lon":11.2234701,"sats":20,"qual":5,"speedKmh":56.5,"ts":"251104160800","receivedAt":1762272480357,"cpuTemp":67.1}}
{"t":1762272480357,"d":{"mac":"E248724C62CF","lat":44.8305074,"lon":11.2229406,"sats":18,"qual":8,"speedKmh":60,"ts":"251104160800","receivedAt":1762272480357,"cpuTemp":58.1}}
{"t":1762272480357,"d":{"mac":"C05F465852AD","lat":44.8307871,"lon":11.223098,"sats":12,"qual":9,"speedKmh":38.7,"ts":"251104160800","receivedAt":1762272480357,"cpuTemp":67.2}}
{"t":1762272480356,"d":{"mac":"E462DD6EE488","lat":44.8311535,"lon":11.2225052,"sats":11,"qual":9,"speedKmh":62,"ts":"251104160800","receivedAt":1762272480356,"cpuTemp":45.6}}
{"t":1762272480421,"d":{"mac":"2D0853A819F8","lat":44.8310647,"lon":11.2238658,"sats":17,"qual":5,"speedKmh":58.5,"ts":"251104160800","receivedAt":1762272480421,"cpuTemp":41.9}}
{"t":1762272480421,"d":{"mac":"CEC81FB3647E","lat":44.8313084,"lon":11.2226217,"sats":19,"qual":9,"speedKmh":62.2,"ts":"251104160800","receivedAt":1762272480421,"cpuTemp":72.5}}
{"t":1762272480422,"d":{"mac":"A395DCE4312A","lat":44.8310015,"lon":11.2238454,"sats":14,"qual":7,"speedKmh":66,"ts":"251104160800","receivedAt":1762272480422,"cpuTemp":41.2}}
{"t":1762272480421,"d":{"mac":"2DA354655C1E","lat":44.8315838,"lon":11.224136,"sats":12,"qual":4,"speedKmh":43,"ts":"251104160800","receivedAt":1762272480421,"cpuTemp":66.3}}
{"t":1762272480422,"d":{"mac":"EA9142989C04","lat":44.8313805,"lon":11.2228746,"sats":18,"qual":8,"speedKmh":55.7,"ts":"251104160800","receivedAt":1762272480422,"cpuTemp":69.5}}
{"t":1762272480422,"d":{"mac":"8B33A72066DF","lat":44.8315735,"lon":11.2233997,"sats":20,"qual":4,"speedKmh":66.8,"ts":"251104160800","receivedAt":1762272480422,"cpuTemp":46.3}}
{"t":1762272480422,"d":{"mac":"0C24633C9F02","lat":44.8316212,"lon":11.2239868,"sats":18,"qual":5,"speedKmh":65.8,"ts":"251104160800","receivedAt":1762272480422,"cpuTemp":72}}
{"t":1762272480422,"d":{"mac":"E462DD6EE488","lat":44.8311632,"lon":11.2225105,"sats":11,"qual":9,"speedKmh":62.4,"ts":"251104160800","receivedAt":1762272480422,"cpuTemp":45.6}}
{"t":1762272480422,"d":{"mac":"081438146791","lat":44.8316915,"lon":11.2230311,"sats":13,"qual":7,"speedKmh":58.2,"ts":"251104160800","receivedAt":1762272480422,"cpuTemp":55.8}}
{"t":1762272480422,"d":{"mac":"421E4CF75DE7","lat":44.8306089,"lon":11.2227651,"sats":17,"qual":7,"speedKmh":69.5,"ts":"251104160800","receivedAt":1762272480422,"cpuTemp":47}}
{"t":1762272480422,"d":{"mac":"081BF382DE19","lat":44.8312101,"lon":11.2237109,"sats":11,"qual":7,"speedKmh":44.8,"ts":"251104160800","receivedAt":1762272480422,"cpuTemp":41.3}}
{"t":1762272480422,"d":{"mac":"43161D25AD8F","lat":44.8318341,"lon":11.2234231,"sats":14,"qual":9,"speedKmh":64.9,"ts":"251104160800","receivedAt":1762272480422,"cpuTemp":72.3}}
{"t":1762272480422,"d":{"mac":"6E59708A14C5","lat":44.8314431,"lon":11.2232758,"sats":13,"qual":9,"speedKmh":57.8,"ts":"251104160800","receivedAt":1762272480422,"cpuTemp":42.1}}
{"t":1762272480422,"d":{"mac":"2E2B37C9995F","lat":44.8309851,"lon":11.2233685,"sats":16,"qual":8,"speedKmh":47.1,"ts":"251104160800","receivedAt":1762272480422,"cpuTemp":73.3}}
{"t":1762272480422,"d":{"mac":"A19B57D57EFA","lat":44.8307571,"lon":11.2229372,"sats":16,"qual":6,"speedKmh":52.6,"ts":"251104160800","receivedAt":1762272480422,"cpuTemp":51}}
{"t":1762272480422,"d":{"mac":"A20B759753CE","lat":44.8315269,"lon":11.2235224,"sats":11,"qual":5,"speedKmh":36.9,"ts":"251104160800","receivedAt":1762272480422,"cpuTemp":51.2}}
{"t":1762272480422,"d":{"mac":"23BBF606B34C","lat":44.8313569,"lon":11.2228976,"sats":10,"qual":7,"speedKmh":57,"ts":"251104160800","receivedAt":1762272480422,"cpuTemp":68.5}}
{"t":1762272480422,"d":{"mac":"20C829CEAAA5","lat":44.8315195,"lon":11.2241538,"sats":13,"qual":7,"speedKmh":62.7,"ts":"251104160800","receivedAt":1762272480422,"cpuTemp":43.9}}
{"t":1762272480422,"d":{"mac":"E1595225A892","lat":44.8314992,"lon":11.2241226,"sats":12,"qual":5,"speedKmh":57.7,"ts":"251104160800","receivedAt":1762272480422,"cpuTemp":71.4}}
{"t":1762272480422,"d":{"mac":"ED22C695F894","lat":44.8315876,"lon":11.2228706,"sats":10,"qual":9,"speedKmh":52.8,"ts":"251104160800","receivedAt":1762272480422,"cpuTemp":70.3}}
{"t":1762272480422,"d":{"mac":"6DE88923FFA6","lat":44.830731,"lon":11.223491,"sats":14,"qual":9,"speedKmh":44.9,"ts":"251104160800","receivedAt":1762272480422,"cpuTemp":48.1}}
{"t":1762272480422,"d":{"mac":"85BC2E9C6B54","lat":44.8307541,"lon":11.2230167,"sats":15,"qual":9,"speedKmh":35.6,"ts":"251104160800","receivedAt":1762272480422,"cpuTemp":44.4}}
{"t":1762272480422,"d":{"mac":"2BC803FBDE91","lat":44.8307751,"lon":11.2234799,"sats":20,"qual":5,"speedKmh":56.3,"ts":"251104160800","receivedAt":1762272480422,"cpuTemp":67.1}}
{"t":1762272480422,"d":{"mac":"2CCF679AF52F","lat":44.6523962,"lon":10.7814112,"sats":12,"qual":5,"speedKmh":0.1,"ts":"251104160800","receivedAt":1762272480422,"accel":{"x":0.012,"y":0,"z":0},"gyro":{"x":0,"y":0,"z":0},"mag":{"x":-2.56,"y":8.5,"z":-28.44},"quat":{"i":0.0099,"j":-0.029,"k":-0.0856,"r":0.9958},"euler":{"roll":1.42,"pitch":-3.21,"yaw":-9.87}}}
{"t":1762272480422,"d":{"mac":"E248724C62CF","lat":44.8305115,"lon":11.2229278,"sats":18,"qual":8,"speedKmh":59.9,"ts":"251104160800","receivedAt":1762272480422,"cpuTemp":58.1}}
{"t":1762272480422,"d":{"mac":"C05F465852AD","lat":44.830785,"lon":11.2231068,"sats":12,"qual":9,"speedKmh":39.2,"ts":"251104160800","receivedAt":1762272480422,"cpuTemp":67.2}}
{"t":1762272480481,"d":{"mac":"2CCF679AF52F","lat":44.6523962,"lon":10.781411,"sats":12,"qual":5,"speedKmh":0,"ts":"251104160800","receivedAt":1762272480481,"accel":{"x":0.004,"y":0,"z":0},"gyro":{"x":0,"y":0,"z":0},"mag":{"x":-2.25,"y":8.38,"z":-27.12},"quat":{"i":0.0099,"j":-0.029,"k":-0.0858,"r":0.9958},"euler":{"roll":1.42,"pitch":-3.21,"yaw":-9.89}}}
{"t":1762272480487,"d":{"mac":"2D0853A819F8","lat":44.8310705,"lon":11.2238546,"sats":17,"qual":5,"speedKmh":58.9,"ts":"251104160800","receivedAt":1762272480487,"cpuTemp":41.9}}
{"t":1762272480487,"d":{"mac":"CEC81FB3647E","lat":44.8313133,"lon":11.2226346,"sats":19,"qual":9,"speedKmh":62.2,"ts":"251104160800","receivedAt":1762272480487,"cpuTemp":72.5}}
{"t":1762272480488,"d":{"mac":"2DA354655C1E","lat":44.8315797,"lon":11.2241444,"sats":12,"qual":4,"speedKmh":43.2,"ts":"251104160800","receivedAt":1762272480488,"cpuTemp":66.3}}
{"t":1762272480488,"d":{"mac":"A395DCE4312A","lat":44.8310077,"lon":11.2238325,"sats":14,"qual":7,"speedKmh":66.2,"ts":"251104160800","receivedAt":1762272480488,"cpuTemp":41.2}}
{"t":1762272480488,"d":{"mac":"EA9142989C04","lat":44.8313897,"lon":11.2228757,"sats":18,"qual":8,"speedKmh":55.3,"ts":"251104160800","receivedAt":1762272480488,"cpuTemp":69.5}}
{"t":1762272480488,"d":{"mac":"8B33A72066DF","lat":44.8315756,"lon":11.2233843,"sats":20,"qual":4,"speedKmh":66.4,"ts":"251104160800","receivedAt":1762272480488,"cpuTemp":46.3}}
{"t":1762272480488,"d":{"mac":"421E4CF75DE7","lat":44.8306137,"lon":11.2227501,"sats":17,"qual":7,"speedKmh":70.3,"ts":"251104160800","receivedAt":1762272480488,"cpuTemp":47}}
{"t":1762272480488,"d":{"mac":"0C24633C9F02","lat":44.8316154,"lon":11.2239999,"sats":18,"qual":5,"speedKmh":65.6,"ts":"251104160800","receivedAt":1762272480488,"cpuTemp":72}}
{"t":1762272480488,"d":{"mac":"E462DD6EE488","lat":44.831173,"lon":11.2225159,"sats":11,"qual":9,"speedKmh":62.9,"ts":"251104160800","receivedAt":1762272480488,"cpuTemp":45.6}}
{"t":1762272480488,"d":{"mac":"081438146791","lat":44.8316996,"lon":11.2230388,"sats":13,"qual":7,"speedKmh":58.4,"ts":"251104160800","receivedAt":1762272480488,"cpuTemp":55.8}}
{"t":1762272480488,"d":{"mac":"081BF382DE19","lat":44.8312175,"lon":11.2237122,"sats":11,"qual":7,"speedKmh":44.6,"ts":"251104160800","receivedAt":1762272480488,"cpuTemp":41.3}}
{"t":1762272480488,"d":{"mac":"43161D25AD8F","lat":44.8318296,"lon":11.2234369,"sats":14,"qual":9,"speedKmh":64.7,"ts":"251104160800","receivedAt":1762272480488,"cpuTemp":72.3}}
{"t":1762272480488,"d":{"mac":"6E59708A14C5","lat":44.8314334,"lon":11.2232772,"sats":13,"qual":9,"speedKmh":58.2,"ts":"251104160800","receivedAt":1762272480488,"cpuTemp":42.1}}
{"t":1762272480488,"d":{"mac":"A19B57D57EFA","lat":44.830754,"lon":11.2229488,"sats":16,"qual":6,"speedKmh":52.5,"ts":"251104160800","receivedAt":1762272480488,"cpuTemp":51}}
{"t":1762272480488,"d":{"mac":"2E2B37C9995F","lat":44.8309778,"lon":11.2233644,"sats":16,"qual":8,"speedKmh":47.6,"ts":"251104160800","receivedAt":1762272480488,"cpuTemp":73.3}}
{"t":1762272480488,"d":{"mac":"A20B759753CE","lat":44.8315313,"lon":11.2235162,"sats":11,"qual":5,"speedKmh":36.9,"ts":"251104160800","receivedAt":1762272480488,"cpuTemp":51.2}}
{"t":1762272480488,"d":{"mac":"23BBF606B34C","lat":44.8313663,"lon":11.222899,"sats":10,"qual":7,"speedKmh":56.6,"ts":"251104160800","receivedAt":1762272480488,"cpuTemp":68.5}}
{"t":1762272480488,"d":{"mac":"ED22C695F894","lat":44.8315962,"lon":11.2228729,"sats":10,"qual":9,"speedKmh":52.7,"ts":"251104160800","receivedAt":1762272480488,"cpuTemp":70.3}}
{"t":1762272480489,"d":{"mac":"20C829CEAAA5","lat":44.8315117,"lon":11.2241637,"sats":13,"qual":7,"speedKmh":63,"ts":"251104160800","receivedAt":1762272480489,"cpuTemp":43.9}}
{"t":1762272480489,"d":{"mac":"E1595225A892","lat":44.8314937,"lon":11.2241335,"sats":12,"qual":5,"speedKmh":57.1,"ts":"251104160800","receivedAt":1762272480489,"cpuTemp":71.4}}
{"t":1762272480489,"d":{"mac":"6DE88923FFA6","lat":44.8307358,"lon":11.223499,"sats":14,"qual":9,"speedKmh":44.7,"ts":"251104160800","receivedAt":1762272480489,"cpuTemp":48.1}}
{"t":1762272480489,"d":{"mac":"85BC2E9C6B54","lat":44.8307523,"lon":11.2230246,"sats":15,"qual":9,"speedKmh":35.4,"ts":"251104160800","receivedAt":1762272480489,"cpuTemp":44.4}}
{"t":1762272480489,"d":{"mac":"2BC803FBDE91","lat":44.8307811,"lon":11.2234903,"sats":20,"qual":5,"speedKmh":57,"ts":"251104160800","receivedAt":1762272480489,"cpuTemp":67.1}}
{"t":1762272480489,"d":{"mac":"E248724C62CF","lat":44.8305157,"lon":11.2229149,"sats":18,"qual":8,"speedKmh":60.5,"ts":"251104160800","receivedAt":1762272480489,"cpuTemp":58.1}}
{"t":1762272480489,"d":{"mac":"C05F465852AD","lat":44.8307829,"lon":11.2231154,"sats":12,"qual":9,"speedKmh":38.8,"ts":"251104160800","receivedAt":1762272480489,"cpuTemp":67.2}}
{"t":1762272480544,"d":{"mac":"2CCF679AF52F","lat":44.652396,"lon":10.781411,"sats":12,"qual":5,"speedKmh":0.1,"ts":"251104160800","receivedAt":1762272480544,"accel":{"x":0.004,"y":0,"z":0},"gyro":{"x":0,"y":0,"z":0},"mag":{"x":-3.75,"y":8.06,"z":-28.06},"quat":{"i":0.0099,"j":-0.029,"k":-0.0859,"r":0.9958},"euler":{"roll":1.42,"pitch":-3.21,"yaw":-9.9}}}
{"t":1762272480554,"d":{"mac":"2D0853A819F8","lat":44.8310768,"lon":11.2238442,"sats":17,"qual":5,"speedKmh":58.3,"ts":"251104160800","receivedAt":1762272480554,"cpuTemp":41.9}}
{"t":1762272480554,"d":{"mac":"CEC81FB3647E","lat":44.8313169,"lon":11.2226481,"sats":19,"qual":9,"speedKmh":61.7,"ts":"251104160800","receivedAt":1762272480554,"cpuTemp":72.5}}
{"t":1762272480555,"d":{"mac":"2DA354655C1E","lat":44.8315756,"lon":11.2241528,"sats":12,"qual":4,"speedKmh":43.5,"ts":"251104160800","receivedAt":1762272480555,"cpuTemp":66.3}}
{"t":1762272480555,"d":{"mac":"A395DCE4312A","lat":44.8310145,"lon":11.2238204,"sats":14,"qual":7,"speedKmh":65.5,"ts":"251104160800","receivedAt":1762272480555,"cpuTemp":41.2}}
{"t":1762272480555,"d":{"mac":"EA9142989C04","lat":44.8313989,"lon":11.2228766,"sats":18,"qual":8,"speedKmh":55.1,"ts":"251104160800","receivedAt":1762272480555,"cpuTemp":69.5}}
{"t":1762272480555,"d":{"mac":"8B33A72066DF","lat":44.8315772,"lon":11.2233689,"sats":20,"qual":4,"speedKmh":66.4,"ts":"251104160800","receivedAt":1762272480555,"cpuTemp":46.3}}
{"t":1762272480555,"d":{"mac":"421E4CF75DE7","lat":44.8306186,"lon":11.2227352,"sats":17,"qual":7,"speedKmh":69.7,"ts":"251104160800","receivedAt":1762272480555,"cpuTemp":47}}
{"t":1762272480555,"d":{"mac":"0C24633C9F02","lat":44.8316095,"lon":11.224013,"sats":18,"qual":5,"speedKmh":65.8,"ts":"251104160800","receivedAt":1762272480555,"cpuTemp":72}}
{"t":1762272480555,"d":{"mac":"E462DD6EE488","lat":44.8311828,"lon":11.2225213,"sats":11,"qual":9,"speedKmh":62.9,"ts":"251104160800","receivedAt":1762272480555,"cpuTemp":45.6}}
{"t":1762272480555,"d":{"mac":"081438146791","lat":44.8317074,"lon":11.2230466,"sats":13,"qual":7,"speedKmh":57.5,"ts":"251104160800","receivedAt":1762272480555,"cpuTemp":55.8}}
{"t":1762272480555,"d":{"mac":"081BF382DE19","lat":44.8312249,"lon":11.2237136,"sats":11,"qual":7,"speedKmh":44.9,"ts":"251104160800","receivedAt":1762272480555,"cpuTemp":41.3}}
{"t":1762272480555,"d":{"mac":"43161D25AD8F","lat":44.8318249,"lon":11.2234507,"sats":14,"qual":9,"speedKmh":65.1,"ts":"251104160800","receivedAt":1762272480555,"cpuTemp":72.3}}
{"t":1762272480555,"d":{"mac":"6E59708A14C5","lat":44.8314237,"lon":11.2232789,"sats":13,"qual":9,"speedKmh":58.7,"ts":"251104160800","receivedAt":1762272480555,"cpuTemp":42.1}}
{"t":1762272480555,"d":{"mac":"A19B57D57EFA","lat":44.830751,"lon":11.2229603,"sats":16,"qual":6,"speedKmh":52.3,"ts":"251104160800","receivedAt":1762272480555,"cpuTemp":51}}
{"t":1762272480555,"d":{"mac":"2E2B37C9995F","lat":44.8309708,"lon":11.2233591,"sats":16,"qual":8,"speedKmh":47.5,"ts":"251104160800","receivedAt":1762272480555,"cpuTemp":73.3}}
{"t":1762272480555,"d":{"mac":"A20B759753CE","lat":44.8315356,"lon":11.2235101,"sats":11,"qual":5,"speedKmh":37,"ts":"251104160800","receivedAt":1762272480555,"cpuTemp":51.2}}
{"t":1762272480555,"d":{"mac":"23BBF606B34C","lat":44.8313757,"lon":11.2229004,"sats":10,"qual":7,"speedKmh":56.5,"ts":"251104160800","receivedAt":1762272480555,"cpuTemp":68.5}}
{"t":1762272480555,"d":{"mac":"ED22C695F894","lat":44.8316047,"lon":11.2228764,"sats":10,"qual":9,"speedKmh":53.2,"ts":"251104160800","receivedAt":1762272480555,"cpuTemp":70.3}}
{"t":1762272480555,"d":{"mac":"20C829CEAAA5","lat":44.8315025,"lon":11.2241711,"sats":13,"qual":7,"speedKmh":63.5,"ts":"251104160800","receivedAt":1762272480555,"cpuTemp":43.9}}
{"t":1762272480555,"d":{"mac":"E1595225A892","lat":44.8314881,"lon":11.2241444,"sats":12,"qual":5,"speedKmh":57,"ts":"251104160800","receivedAt":1762272480555,"cpuTemp":71.4}}
{"t":1762272480555,"d":{"mac":"6DE88923FFA6","lat":44.8307409,"lon":11.2235067,"sats":14,"qual":9,"speedKmh":44.6,"ts":"251104160800","receivedAt":1762272480555,"cpuTemp":48.1}}
{"t":1762272480556,"d":{"mac":"85BC2E9C6B54","lat":44.8307504,"lon":11.2230325,"sats":15,"qual":9,"speedKmh":35.4,"ts":"251104160800","receivedAt":1762272480556,"cpuTemp":44.4}}
{"t":1762272480556,"d":{"mac":"2BC803FBDE91","lat":44.8307865,"lon":11.2235012,"sats":20,"qual":5,"speedKmh":56.6,"ts":"251104160800","receivedAt":1762272480556,"cpuTemp":67.1}}
{"t":1762272480556,"d":{"mac":"E248724C62CF","lat":44.8305199,"lon":11.222902,"sats":18,"qual":8,"speedKmh":60.1,"ts":"251104160800","receivedAt":1762272480556,"cpuTemp":58.1}}
{"t":1762272480556,"d":{"mac":"C05F465852AD","lat":44.8307809,"lon":11.2231241,"sats":12,"qual":9,"speedKmh":39,"ts":"251104160800","receivedAt":1762272480556,"cpuTemp":67.2}}
{"t":1762272480614,"d":{"mac":"2CCF679AF52F","lat":44.652396,"lon":10.7814112,"sats":12,"qual":5,"speedKmh":0.1,"ts":"251104160800","receivedAt":1762272480614,"accel":{"x":0.004,"y":0,"z":0},"gyro":{"x":0,"y":0,"z":0},"mag":{"x":-3,"y":8.5,"z":-28.5},"quat":{"i":0.0099,"j":-0.029,"k":-0.0859,"r":0.9958},"euler":{"roll":1.42,"pitch":-3.21,"yaw":-9.9}}}
{"t":1762272480621,"d":{"mac":"2D0853A819F8","lat":44.8310839,"lon":11.2238346,"sats":17,"qual":5,"speedKmh":59.2,"ts":"251104160800","receivedAt":1762272480621,"cpuTemp":41.9}}
{"t":1762272480621,"d":{"mac":"CEC81FB3647E","lat":44.8313192,"lon":11.2226624,"sats":19,"qual":9,"speedKmh":62.4,"ts":"251104160800","receivedAt":1762272480621,"cpuTemp":72.5}}
{"t":1762272480621,"d":{"mac":"2DA354655C1E","lat":44.8315714,"lon":11.2241611,"sats":12,"qual":4,"speedKmh":43.1,"ts":"251104160800","receivedAt":1762272480621,"cpuTemp":66.3}}
{"t":1762272480621,"d":{"mac":"A395DCE4312A","lat":44.8310222,"lon":11.2238094,"sats":14,"qual":7,"speedKmh":65.9,"ts":"251104160800","receivedAt":1762272480621,"cpuTemp":41.2}}
{"t":1762272480621,"d":{"mac":"EA9142989C04","lat":44.8314081,"lon":11.2228774,"sats":18,"qual":8,"speedKmh":55.3,"ts":"251104160800","receivedAt":1762272480621,"cpuTemp":69.5}}
{"t":1762272480621,"d":{"mac":"8B33A72066DF","lat":44.8315784,"lon":11.2233533,"sats":20,"qual":4,"speedKmh":66.5,"ts":"251104160800","receivedAt":1762272480621,"cpuTemp":46.3}}
{"t":1762272480621,"d":{"mac":"421E4CF75DE7","lat":44.8306234,"lon":11.2227203,"sats":17,"qual":7,"speedKmh":69.8,"ts":"251104160800","receivedAt":1762272480621,"cpuTemp":47}}
{"t":1762272480621,"d":{"mac":"E462DD6EE488","lat":44.8311925,"lon":11.2225267,"sats":11,"qual":9,"speedKmh":62.3,"ts":"251104160800","receivedAt":1762272480621,"cpuTemp":45.6}}
{"t":1762272480621,"d":{"mac":"0C24633C9F02","lat":44.8316035,"lon":11.2240261,"sats":18,"qual":5,"speedKmh":66.3,"ts":"251104160800","receivedAt":1762272480621,"cpuTemp":72}}
{"t":1762272480621,"d":{"mac":"081438146791","lat":44.8317152,"lon":11.2230548,"sats":13,"qual":7,"speedKmh":58,"ts":"251104160800","receivedAt":1762272480621,"cpuTemp":55.8}}
{"t":1762272480622,"d":{"mac":"081BF382DE19","lat":44.8312323,"lon":11.2237149,"sats":11,"qual":7,"speedKmh":44.7,"ts":"251104160800","receivedAt":1762272480622,"cpuTemp":41.3}}
{"t":1762272480622,"d":{"mac":"43161D25AD8F","lat":44.8318201,"lon":11.2234644,"sats":14,"qual":9,"speedKmh":65.1,"ts":"251104160800","receivedAt":1762272480622,"cpuTemp":72.3}}
{"t":1762272480622,"d":{"mac":"6E59708A14C5","lat":44.8314141,"lon":11.223281,"sats":13,"qual":9,"speedKmh":58.2,"ts":"251104160800","receivedAt":1762272480622,"cpuTemp":42.1}}
{"t":1762272480622,"d":{"mac":"A19B57D57EFA","lat":44.830748,"lon":11.2229719,"sats":16,"qual":6,"speedKmh":52.4,"ts":"251104160800","receivedAt":1762272480622,"cpuTemp":51}}
{"t":1762272480622,"d":{"mac":"2E2B37C9995F","lat":44.830964,"lon":11.2233532,"sats":16,"qual":8,"speedKmh":47.8,"ts":"251104160800","receivedAt":1762272480622,"cpuTemp":73.3}}
{"t":1762272480622,"d":{"mac":"A20B759753CE","lat":44.83154,"lon":11.223504,"sats":11,"qual":5,"speedKmh":36.6,"ts":"251104160800","receivedAt":1762272480622,"cpuTemp":51.2}}
{"t":1762272480622,"d":{"mac":"23BBF606B34C","lat":44.831385,"lon":11.2229017,"sats":10,"qual":7,"speedKmh":56.1,"ts":"251104160800","receivedAt":1762272480622,"cpuTemp":68.5}}
{"t":1762272480622,"d":{"mac":"ED22C695F894","lat":44.8316126,"lon":11.2228821,"sats":10,"qual":9,"speedKmh":53.1,"ts":"251104160800","receivedAt":1762272480622,"cpuTemp":70.3}}
{"t":1762272480622,"d":{"mac":"20C829CEAAA5","lat":44.8314929,"lon":11.2241769,"sats":13,"qual":7,"speedKmh":62.8,"ts":"251104160800","receivedAt":1762272480622,"cpuTemp":43.9}}
{"t":1762272480622,"d":{"mac":"E1595225A892","lat":44.8314823,"lon":11.2241551,"sats":12,"qual":5,"speedKmh":57.5,"ts":"251104160800","receivedAt":1762272480622,"cpuTemp":71.4}}
{"t":1762272480622,"d":{"mac":"6DE88923FFA6","lat":44.8307455,"lon":11.2235149,"sats":14,"qual":9,"speedKmh":44.9,"ts":"251104160800","receivedAt":1762272480622,"cpuTemp":48.1}}
{"t":1762272480622,"d":{"mac":"85BC2E9C6B54","lat":44.8307486,"lon":11.2230402,"sats":15,"qual":9,"speedKmh":34.7,"ts":"251104160800","receivedAt":1762272480622,"cpuTemp":44.4}}
{"t":1762272480622,"d":{"mac":"2BC803FBDE91","lat":44.8307913,"lon":11.2235125,"sats":20,"qual":5,"speedKmh":56.1,"ts":"251104160800","receivedAt":1762272480622,"cpuTemp":67.1}}
{"t":1762272480622,"d":{"mac":"E248724C62CF","lat":44.8305241,"lon":11.2228891,"sats":18,"qual":8,"speedKmh":60.3,"ts":"251104160800","receivedAt":1762272480622,"cpuTemp":58.1}}
{"t":1762272480622,"d":{"mac":"C05F465852AD","lat":44.8307789,"lon":11.2231328,"sats":12,"qual":9,"speedKmh":38.8,"ts":"251104160800","receivedAt":1762272480622,"cpuTemp":67.2}}
{"t":1762272480684,"d":{"mac":"2CCF679AF52F","lat":44.652396,"lon":10.781411,"sats":12,"qual":5,"speedKmh":0.2,"ts":"251104160800","receivedAt":1762272480684,"accel":{"x":0.004,"y":0,"z":0},"gyro":{"x":0,"y":0,"z":0},"mag":{"x":-2.88,"y":7.19,"z":-27.88},"quat":{"i":0.0099,"j":-0.029,"k":-0.086,"r":0.9958},"euler":{"roll":1.42,"pitch":-3.21,"yaw":-9.91}}}
{"t":1762272480688,"d":{"mac":"2D0853A819F8","lat":44.8310917,"lon":11.2238262,"sats":17,"qual":5,"speedKmh":58.6,"ts":"251104160800","receivedAt":1762272480688,"cpuTemp":41.9}}
{"t":1762272480688,"d":{"mac":"CEC81FB3647E","lat":44.8313203,"lon":11.2226769,"sats":19,"qual":9,"speedKmh":62.2,"ts":"251104160800","receivedAt":1762272480688,"cpuTemp":72.5}}
{"t":1762272480688,"d":{"mac":"2DA354655C1E","lat":44.8315673,"lon":11.2241694,"sats":12,"qual":4,"speedKmh":43,"ts":"251104160800","receivedAt":1762272480688,"cpuTemp":66.3}}
{"t":1762272480688,"d":{"mac":"A395DCE4312A","lat":44.8310309,"lon":11.2237999,"sats":14,"qual":7,"speedKmh":66.1,"ts":"251104160800","receivedAt":1762272480688,"cpuTemp":41.2}}
{"t":1762272480688,"d":{"mac":"EA9142989C04","lat":44.8314174,"lon":11.2228782,"sats":18,"qual":8,"speedKmh":55.4,"ts":"251104160800","receivedAt":1762272480688,"cpuTemp":69.5}}
{"t":1762272480688,"d":{"mac":"8B33A72066DF","lat":44.8315789,"lon":11.2233377,"sats":20,"qual":4,"speedKmh":66.5,"ts":"251104160800","receivedAt":1762272480688,"cpuTemp":46.3}}
{"t":1762272480688,"d":{"mac":"421E4CF75DE7","lat":44.8306283,"lon":11.2227053,"sats":17,"qual":7,"speedKmh":69.9,"ts":"251104160800","receivedAt":1762272480688,"cpuTemp":47}}
{"t":1762272480688,"d":{"mac":"0C24633C9F02","lat":44.8315975,"lon":11.2240391,"sats":18,"qual":5,"speedKmh":66,"ts":"251104160800","receivedAt":1762272480688,"cpuTemp":72}}
{"t":1762272480688,"d":{"mac":"E462DD6EE488","lat":44.8312021,"lon":11.2225322,"sats":11,"qual":9,"speedKmh":62.2,"ts":"251104160800","receivedAt":1762272480688,"cpuTemp":45.6}}
{"t":1762272480688,"d":{"mac":"081438146791","lat":44.8317229,"lon":11.2230629,"sats":13,"qual":7,"speedKmh":57.6,"ts":"251104160800","receivedAt":1762272480688,"cpuTemp":55.8}}
{"t":1762272480688,"d":{"mac":"081BF382DE19","lat":44.8312398,"lon":11.2237158,"sats":11,"qual":7,"speedKmh":44.9,"ts":"251104160800","receivedAt":1762272480688,"cpuTemp":41.3}}
{"t":1762272480688,"d":{"mac":"43161D25AD8F","lat":44.8318152,"lon":11.2234781,"sats":14,"qual":9,"speedKmh":65.2,"ts":"251104160800","receivedAt":1762272480688,"cpuTemp":72.3}}
{"t":1762272480688,"d":{"mac":"6E59708A14C5","lat":44.8314047,"lon":11.2232839,"sats":13,"qual":9,"speedKmh":58,"ts":"251104160800","receivedAt":1762272480688,"cpuTemp":42.1}}
{"t":1762272480688,"d":{"mac":"A19B57D57EFA","lat":44.8307451,"lon":11.2229835,"sats":16,"qual":6,"speedKmh":52.4,"ts":"251104160800","receivedAt":1762272480688,"cpuTemp":51}}
{"t":1762272480688,"d":{"mac":"2E2B37C9995F","lat":44.8309577,"lon":11.2233465,"sats":16,"qual":8,"speedKmh":47.3,"ts":"251104160800","receivedAt":1762272480688,"cpuTemp":73.3}}
{"t":1762272480689,"d":{"mac":"A20B759753CE","lat":44.8315443,"lon":11.2234979,"sats":11,"qual":5,"speedKmh":36.7,"ts":"251104160800","receivedAt":1762272480689,"cpuTemp":51.2}}
{"t":1762272480689,"d":{"mac":"23BBF606B34C","lat":44.8313944,"lon":11.2229027,"sats":10,"qual":7,"speedKmh":56.4,"ts":"251104160800","receivedAt":1762272480689,"cpuTemp":68.5}}
{"t":1762272480689,"d":{"mac":"ED22C695F894","lat":44.8316206,"lon":11.2228873,"sats":10,"qual":9,"speedKmh":52.7,"ts":"251104160800","receivedAt":1762272480689,"cpuTemp":70.3}}
{"t":1762272480689,"d":{"mac":"20C829CEAAA5","lat":44.8314829,"lon":11.2241817,"sats":13,"qual":7,"speedKmh":63.4,"ts":"251104160800","receivedAt":1762272480689,"cpuTemp":43.9}}
{"t":1762272480689,"d":{"mac":"E1595225A892","lat":44.8314757,"lon":11.224165,"sats":12,"qual":5,"speedKmh":57.8,"ts":"251104160800","receivedAt":1762272480689,"cpuTemp":71.4}}
{"t":1762272480689,"d":{"mac":"6DE88923FFA6","lat":44.8307498,"lon":11.2235234,"sats":14,"qual":9,"speedKmh":44.3,"ts":"251104160800","receivedAt":1762272480689,"cpuTemp":48.1}}
{"t":1762272480689,"d":{"mac":"85BC2E9C6B54","lat":44.8307467,"lon":11.2230481,"sats":15,"qual":9,"speedKmh":35.3,"ts":"251104160800","receivedAt":1762272480689,"cpuTemp":44.4}}
{"t":1762272480689,"d":{"mac":"2BC803FBDE91","lat":44.8307959,"lon":11.2235242,"sats":20,"qual":5,"speedKmh":56.7,"ts":"251104160800","receivedAt":1762272480689,"cpuTemp":67.1}}
{"t":1762272480689,"d":{"mac":"E248724C62CF","lat":44.8305283,"lon":11.2228761,"sats":18,"qual":8,"speedKmh":60.6,"ts":"251104160800","receivedAt":1762272480689,"cpuTemp":58.1}}
{"t":1762272480689,"d":{"mac":"C05F465852AD","lat":44.8307769,"lon":11.2231417,"sats":12,"qual":9,"speedKmh":39.6,"ts":"251104160800","receivedAt":1762272480689,"cpuTemp":67.2}}
{"t":1762272480755,"d":{"mac":"2D0853A819F8","lat":44.8311001,"lon":11.223819,"sats":17,"qual":5,"speedKmh":59,"ts":"251104160800","receivedAt":1762272480755,"cpuTemp":41.9}}
{"t":1762272480755,"d":{"mac":"A395DCE4312A","lat":44.8310403,"lon":11.2237919,"sats":14,"qual":7,"speedKmh":66,"ts":"251104160800","receivedAt":1762272480755,"cpuTemp":41.2}}
{"t":1762272480755,"d":{"mac":"CEC81FB3647E","lat":44.8313199,"lon":11.2226914,"sats":19,"qual":9,"speedKmh":61.8,"ts":"251104160800","receivedAt":1762272480755,"cpuTemp":72.5}}
{"t":1762272480755,"d":{"mac":"2DA354655C1E","lat":44.831563,"lon":11.2241775,"sats":12,"qual":4,"speedKmh":43.3,"ts":"251104160800","receivedAt":1762272480755,"cpuTemp":66.3}}
{"t":1762272480755,"d":{"mac":"EA9142989C04","lat":44.8314266,"lon":11.2228789,"sats":18,"qual":8,"speedKmh":55.4,"ts":"251104160800","receivedAt":1762272480755,"cpuTemp":69.5}}
{"t":1762272480755,"d":{"mac":"8B33A72066DF","lat":44.8315783,"lon":11.2233221,"sats":20,"qual":4,"speedKmh":66.4,"ts":"251104160800","receivedAt":1762272480755,"cpuTemp":46.3}}
{"t":1762272480755,"d":{"mac":"421E4CF75DE7","lat":44.8306332,"lon":11.2226904,"sats":17,"qual":7,"speedKmh":70,"ts":"251104160800","receivedAt":1762272480755,"cpuTemp":47}}
{"t":1762272480755,"d":{"mac":"0C24633C9F02","lat":44.8315914,"lon":11.2240522,"sats":18,"qual":5,"speedKmh":66.4,"ts":"251104160800","receivedAt":1762272480755,"cpuTemp":72}}
{"t":1762272480755,"d":{"mac":"E462DD6EE488","lat":44.8312116,"lon":11.2225382,"sats":11,"qual":9,"speedKmh":62.4,"ts":"251104160800","receivedAt":1762272480755,"cpuTemp":45.6}}
{"t":1762272480755,"d":{"mac":"081438146791","lat":44.8317305,"lon":11.2230714,"sats":13,"qual":7,"speedKmh":58.3,"ts":"251104160800","receivedAt":1762272480755,"cpuTemp":55.8}}
{"t":1762272480755,"d":{"mac":"081BF382DE19","lat":44.8312473,"lon":11.2237167,"sats":11,"qual":7,"speedKmh":45,"ts":"251104160800","receivedAt":1762272480755,"cpuTemp":41.3}}
{"t":1762272480755,"d":{"mac":"43161D25AD8F","lat":44.8318104,"lon":11.2234916,"sats":14,"qual":9,"speedKmh":64.4,"ts":"251104160800","receivedAt":1762272480755,"cpuTemp":72.3}}
{"t":1762272480755,"d":{"mac":"6E59708A14C5","lat":44.8313953,"lon":11.2232878,"sats":13,"qual":9,"speedKmh":58.4,"ts":"251104160800","receivedAt":1762272480755,"cpuTemp":42.1}}
{"t":1762272480755,"d":{"mac":"A19B57D57EFA","lat":44.8307422,"lon":11.2229951,"sats":16,"qual":6,"speedKmh":52.3,"ts":"251104160800","receivedAt":1762272480755,"cpuTemp":51}}
{"t":1762272480755,"d":{"mac":"2E2B37C9995F","lat":44.8309517,"lon":11.2233392,"sats":16,"qual":8,"speedKmh":47.5,"ts":"251104160800","receivedAt":1762272480755,"cpuTemp":73.3}}
{"t":1762272480756,"d":{"mac":"A20B759753CE","lat":44.8315485,"lon":11.2234917,"sats":11,"qual":5,"speedKmh":36.4,"ts":"251104160800","receivedAt":1762272480756,"cpuTemp":51.2}}
{"t":1762272480756,"d":{"mac":"23BBF606B34C","lat":44.8314039,"lon":11.2229037,"sats":10,"qual":7,"speedKmh":57,"ts":"251104160800","receivedAt":1762272480756,"cpuTemp":68.5}}
{"t":1762272480756,"d":{"mac":"ED22C695F894","lat":44.8316286,"lon":11.2228921,"sats":10,"qual":9,"speedKmh":52.5,"ts":"251104160800","receivedAt":1762272480756,"cpuTemp":70.3}}
{"t":1762272480756,"d":{"mac":"20C829CEAAA5","lat":44.8314728,"lon":11.2241859,"sats":13,"qual":7,"speedKmh":62.9,"ts":"251104160800","receivedAt":1762272480756,"cpuTemp":43.9}}
{"t":1762272480756,"d":{"mac":"E1595225A892","lat":44.8314681,"lon":11.224173,"sats":12,"qual":5,"speedKmh":57.4,"ts":"251104160800","receivedAt":1762272480756,"cpuTemp":71.4}}
{"t":1762272480756,"d":{"mac":"6DE88923FFA6","lat":44.830754,"lon":11.2235321,"sats":14,"qual":9,"speedKmh":44.7,"ts":"251104160800","receivedAt":1762272480756,"cpuTemp":48.1}}
{"t":1762272480756,"d":{"mac":"85BC2E9C6B54","lat":44.8307448,"lon":11.223056,"sats":15,"qual":9,"speedKmh":35.5,"ts":"251104160800","receivedAt":1762272480756,"cpuTemp":44.4}}
{"t":1762272480756,"d":{"mac":"2BC803FBDE91","lat":44.8308,"lon":11.2235362,"sats":20,"qual":5,"speedKmh":56.6,"ts":"251104160800","receivedAt":1762272480756,"cpuTemp":67.1}}
{"t":1762272480756,"d":{"mac":"E248724C62CF","lat":44.8305324,"lon":11.2228633,"sats":18,"qual":8,"speedKmh":60.1,"ts":"251104160800","receivedAt":1762272480756,"cpuTemp":58.1}}
{"t":1762272480756,"d":{"mac":"C05F465852AD","lat":44.830775,"lon":11.2231504,"sats":12,"qual":9,"speedKmh":38.9,"ts":"251104160800","receivedAt":1762272480756,"cpuTemp":67.2}}
{"t":1762272480761,"d":{"mac":"2CCF679AF52F","lat":44.652396,"lon":10.7814112,"sats":12,"qual":5,"speedKmh":0.1,"ts":"251104160800","receivedAt":1762272480761,"accel":{"x":0.004,"y":0,"z":0},"gyro":{"x":0,"y":0,"z":0},"mag":{"x":-2.56,"y":7.94,"z":-26.62},"quat":{"i":0.0099,"j":-0.029,"k":-0.086,"r":0.9958},"euler":{"roll":1.42,"pitch":-3.21,"yaw":-9.91}}}
{"t":1762272480814,"d":{"mac":"2CCF679AF52F","lat":44.6523962,"lon":10.7814112,"sats":12,"qual":5,"speedKmh":0.1,"ts":"251104160800","receivedAt":1762272480814,"accel":{"x":-0.035,"y":0,"z":0},"gyro":{"x":0,"y":0,"z":0},"mag":{"x":-2.81,"y":8.94,"z":-28},"quat":{"i":0.0099,"j":-0.029,"k":-0.0861,"r":0.9958},"euler":{"roll":1.42,"pitch":-3.21,"yaw":-9.92}}}
{"t":1762272480821,"d":{"mac":"CEC81FB3647E","lat":44.8313193,"lon":11.222706,"sats":19,"qual":9,"speedKmh":61.9,"ts":"251104160800","receivedAt":1762272480821,"cpuTemp":72.5}}
{"t":1762272480821,"d":{"mac":"2D0853A819F8","lat":44.8311088,"lon":11.223813,"sats":17,"qual":5,"speedKmh":58.4,"ts":"251104160800","receivedAt":1762272480821,"cpuTemp":41.9}}
{"t":1762272480822,"d":{"mac":"2DA354655C1E","lat":44.8315585,"lon":11.2241854,"sats":12,"qual":4,"speedKmh":43,"ts":"251104160800","receivedAt":1762272480822,"cpuTemp":66.3}}
{"t":1762272480822,"d":{"mac":"A395DCE4312A","lat":44.8310503,"lon":11.2237852,"sats":14,"qual":7,"speedKmh":66.2,"ts":"251104160800","receivedAt":1762272480822,"cpuTemp":41.2}}
{"t":1762272480822,"d":{"mac":"EA9142989C04","lat":44.8314358,"lon":11.2228797,"sats":18,"qual":8,"speedKmh":55.3,"ts":"251104160800","receivedAt":1762272480822,"cpuTemp":69.5}}
{"t":1762272480822,"d":{"mac":"8B33A72066DF","lat":44.8315761,"lon":11.2233069,"sats":20,"qual":4,"speedKmh":66.2,"ts":"251104160800","receivedAt":1762272480822,"cpuTemp":46.3}}
{"t":1762272480822,"d":{"mac":"421E4CF75DE7","lat":44.8306381,"lon":11.2226754,"sats":17,"qual":7,"speedKmh":70.1,"ts":"251104160800","receivedAt":1762272480822,"cpuTemp":47}}
{"t":1762272480822,"d":{"mac":"0C24633C9F02","lat":44.8315853,"lon":11.2240651,"sats":18,"qual":5,"speedKmh":66.2,"ts":"251104160800","receivedAt":1762272480822,"cpuTemp":72}}
{"t":1762272480822,"d":{"mac":"E462DD6EE488","lat":44.8312211,"lon":11.2225442,"sats":11,"qual":9,"speedKmh":62.8,"ts":"251104160800","receivedAt":1762272480822,"cpuTemp":45.6}}
{"t":1762272480822,"d":{"mac":"081438146791","lat":44.831738,"lon":11.2230801,"sats":13,"qual":7,"speedKmh":58.2,"ts":"251104160800","receivedAt":1762272480822,"cpuTemp":55.8}}
{"t":1762272480822,"d":{"mac":"081BF382DE19","lat":44.8312547,"lon":11.2237176,"sats":11,"qual":7,"speedKmh":44.8,"ts":"251104160800","receivedAt":1762272480822,"cpuTemp":41.3}}
{"t":1762272480822,"d":{"mac":"43161D25AD8F","lat":44.8318055,"lon":11.2235052,"sats":14,"qual":9,"speedKmh":64.7,"ts":"251104160800","receivedAt":1762272480822,"cpuTemp":72.3}}
{"t":1762272480822,"d":{"mac":"6E59708A14C5","lat":44.831386,"lon":11.2232918,"sats":13,"qual":9,"speedKmh":58.4,"ts":"251104160800","receivedAt":1762272480822,"cpuTemp":42.1}}
{"t":1762272480822,"d":{"mac":"A19B57D57EFA","lat":44.8307393,"lon":11.2230068,"sats":16,"qual":6,"speedKmh":52.6,"ts":"251104160800","receivedAt":1762272480822,"cpuTemp":51}}
{"t":1762272480822,"d":{"mac":"2E2B37C9995F","lat":44.8309462,"lon":11.2233313,"sats":16,"qual":8,"speedKmh":47.2,"ts":"251104160800","receivedAt":1762272480822,"cpuTemp":73.3}}
{"t":1762272480822,"d":{"mac":"A20B759753CE","lat":44.8315527,"lon":11.2234854,"sats":11,"qual":5,"speedKmh":37,"ts":"251104160800","receivedAt":1762272480822,"cpuTemp":51.2}}
{"t":1762272480822,"d":{"mac":"23BBF606B34C","lat":44.8314133,"lon":11.2229047,"sats":10,"qual":7,"speedKmh":56.4,"ts":"251104160800","receivedAt":1762272480822,"cpuTemp":68.5}}
{"t":1762272480823,"d":{"mac":"20C829CEAAA5","lat":44.8314627,"lon":11.2241899,"sats":13,"qual":7,"speedKmh":63.1,"ts":"251104160800","receivedAt":1762272480823,"cpuTemp":43.9}}
{"t":1762272480823,"d":{"mac":"ED22C695F894","lat":44.8316368,"lon":11.2228969,"sats":10,"qual":9,"speedKmh":53.2,"ts":"251104160800","receivedAt":1762272480823,"cpuTemp":70.3}}
{"t":1762272480823,"d":{"mac":"E1595225A892","lat":44.8314596,"lon":11.2241792,"sats":12,"qual":5,"speedKmh":57.3,"ts":"251104160800","receivedAt":1762272480823,"cpuTemp":71.4}}
{"t":1762272480823,"d":{"mac":"6DE88923FFA6","lat":44.8307576,"lon":11.2235413,"sats":14,"qual":9,"speedKmh":44.4,"ts":"251104160800","receivedAt":1762272480823,"cpuTemp":48.1}}
{"t":1762272480823,"d":{"mac":"85BC2E9C6B54","lat":44.8307429,"lon":11.223064,"sats":15,"qual":9,"speedKmh":35.5,"ts":"251104160800","receivedAt":1762272480823,"cpuTemp":44.4}}
{"t":1762272480823,"d":{"mac":"E248724C62CF","lat":44.8305366,"lon":11.2228503,"sats":18,"qual":8,"speedKmh":60.6,"ts":"251104160800","receivedAt":1762272480823,"cpuTemp":58.1}}
{"t":1762272480823,"d":{"mac":"2BC803FBDE91","lat":44.8308038,"lon":11.2235483,"sats":20,"qual":5,"speedKmh":56.3,"ts":"251104160800","receivedAt":1762272480823,"cpuTemp":67.1}}
{"t":1762272480823,"d":{"mac":"C05F465852AD","lat":44.8307732,"lon":11.2231592,"sats":12,"qual":9,"speedKmh":38.8,"ts":"251104160800","receivedAt":1762272480823,"cpuTemp":67.2}}
{"t":1762272480883,"d":{"mac":"2CCF679AF52F","lat":44.6523962,"lon":10.7814112,"sats":12,"qual":5,"speedKmh":0,"ts":"251104160800","receivedAt":1762272480883,"accel":{"x":0.012,"y":0,"z":0},"gyro":{"x":0,"y":0,"z":0},"mag":{"x":-3.38,"y":9.44,"z":-28.62},"quat":{"i":0.0099,"j":-0.029,"k":-0.0861,"r":0.9958},"euler":{"roll":1.42,"pitch":-3.21,"yaw":-9.93}}}
{"t":1762272480889,"d":{"mac":"2D0853A819F8","lat":44.8311178,"lon":11.2238076,"sats":17,"qual":5,"speedKmh":58.5,"ts":"251104160800","receivedAt":1762272480888,"cpuTemp":41.9}}
{"t":1762272480889,"d":{"mac":"CEC81FB3647E","lat":44.8313188,"lon":11.2227205,"sats":19,"qual":9,"speedKmh":61.7,"ts":"251104160800","receivedAt":1762272480889,"cpuTemp":72.5}}
{"t":1762272480889,"d":{"mac":"2DA354655C1E","lat":44.8315536,"lon":11.2241928,"sats":12,"qual":4,"speedKmh":43.1,"ts":"251104160800","receivedAt":1762272480889,"cpuTemp":66.3}}
{"t":1762272480889,"d":{"mac":"A395DCE4312A","lat":44.8310604,"lon":11.2237793,"sats":14,"qual":7,"speedKmh":65.6,"ts":"251104160800","receivedAt":1762272480889,"cpuTemp":41.2}}
{"t":1762272480889,"d":{"mac":"EA9142989C04","lat":44.8314451,"lon":11.2228804,"sats":18,"qual":8,"speedKmh":55.5,"ts":"251104160800","receivedAt":1762272480889,"cpuTemp":69.5}}
{"t":1762272480889,"d":{"mac":"8B33A72066DF","lat":44.8315722,"lon":11.2232924,"sats":20,"qual":4,"speedKmh":66.1,"ts":"251104160800","receivedAt":1762272480889,"cpuTemp":46.3}}
{"t":1762272480889,"d":{"mac":"421E4CF75DE7","lat":44.830643,"lon":11.2226606,"sats":17,"qual":7,"speedKmh":69.7,"ts":"251104160800","receivedAt":1762272480889,"cpuTemp":47}}
{"t":1762272480889,"d":{"mac":"0C24633C9F02","lat":44.8315791,"lon":11.2240779,"sats":18,"qual":5,"speedKmh":65.8,"ts":"251104160800","receivedAt":1762272480889,"cpuTemp":72}}
{"t":1762272480889,"d":{"mac":"E462DD6EE488","lat":44.8312306,"lon":11.2225502,"sats":11,"qual":9,"speedKmh":62.2,"ts":"251104160800","receivedAt":1762272480889,"cpuTemp":45.6}}
{"t":1762272480889,"d":{"mac":"081438146791","lat":44.8317455,"lon":11.2230888,"sats":13,"qual":7,"speedKmh":58.1,"ts":"251104160800","receivedAt":1762272480889,"cpuTemp":55.8}}
{"t":1762272480889,"d":{"mac":"081BF382DE19","lat":44.8312623,"lon":11.2237184,"sats":11,"qual":7,"speedKmh":45.4,"ts":"251104160800","receivedAt":1762272480889,"cpuTemp":41.3}}
{"t":1762272480889,"d":{"mac":"43161D25AD8F","lat":44.8318007,"lon":11.2235187,"sats":14,"qual":9,"speedKmh":64.3,"ts":"251104160800","receivedAt":1762272480889,"cpuTemp":72.3}}
{"t":1762272480889,"d":{"mac":"6E59708A14C5","lat":44.8313768,"lon":11.223296,"sats":13,"qual":9,"speedKmh":58.3,"ts":"251104160800","receivedAt":1762272480889,"cpuTemp":42.1}}
{"t":1762272480889,"d":{"mac":"A19B57D57EFA","lat":44.8307364,"lon":11.2230185,"sats":16,"qual":6,"speedKmh":52.9,"ts":"251104160800","receivedAt":1762272480889,"cpuTemp":51}}
{"t":1762272480889,"d":{"mac":"2E2B37C9995F","lat":44.8309411,"lon":11.2233227,"sats":16,"qual":8,"speedKmh":47.7,"ts":"251104160800","receivedAt":1762272480889,"cpuTemp":73.3}}
{"t":1762272480889,"d":{"mac":"A20B759753CE","lat":44.8315569,"lon":11.2234792,"sats":11,"qual":5,"speedKmh":36.4,"ts":"251104160800","receivedAt":1762272480889,"cpuTemp":51.2}}
{"t":1762272480889,"d":{"mac":"23BBF606B34C","lat":44.8314228,"lon":11.2229056,"sats":10,"qual":7,"speedKmh":56.8,"ts":"251104160800","receivedAt":1762272480889,"cpuTemp":68.5}}
{"t":1762272480889,"d":{"mac":"ED22C695F894","lat":44.8316451,"lon":11.2229015,"sats":10,"qual":9,"speedKmh":53.3,"ts":"251104160800","receivedAt":1762272480889,"cpuTemp":70.3}}
{"t":1762272480889,"d":{"mac":"20C829CEAAA5","lat":44.8314525,"lon":11.2241937,"sats":13,"qual":7,"speedKmh":62.9,"ts":"251104160800","receivedAt":1762272480889,"cpuTemp":43.9}}
{"t":1762272480889,"d":{"mac":"E1595225A892","lat":44.8314507,"lon":11.2241843,"sats":12,"qual":5,"speedKmh":57.6,"ts":"251104160800","receivedAt":1762272480889,"cpuTemp":71.4}}
{"t":1762272480890,"d":{"mac":"6DE88923FFA6","lat":44.8307612,"lon":11.2235504,"sats":14,"qual":9,"speedKmh":44.4,"ts":"251104160800","receivedAt":1762272480890,"cpuTemp":48.1}}
{"t":1762272480890,"d":{"mac":"85BC2E9C6B54","lat":44.8307411,"lon":11.2230717,"sats":15,"qual":9,"speedKmh":34.8,"ts":"251104160800","receivedAt":1762272480890,"cpuTemp":44.4}}
{"t":1762272480890,"d":{"mac":"2BC803FBDE91","lat":44.8308074,"lon":11.2235607,"sats":20,"qual":5,"speedKmh":56.9,"ts":"251104160800","receivedAt":1762272480890,"cpuTemp":67.1}}
{"t":1762272480890,"d":{"mac":"E248724C62CF","lat":44.8305408,"lon":11.2228375,"sats":18,"qual":8,"speedKmh":59.9,"ts":"251104160800","receivedAt":1762272480890,"cpuTemp":58.1}}
{"t":1762272480890,"d":{"mac":"C05F465852AD","lat":44.8307712,"lon":11.223168,"sats":12,"qual":9,"speedKmh":39.4,"ts":"251104160800","receivedAt":1762272480890,"cpuTemp":67.2}}
{"t":1762272480944,"d":{"mac":"2CCF679AF52F","lat":44.6523962,"lon":10.7814112,"sats":12,"qual":5,"speedKmh":0.1,"ts":"251104160800","receivedAt":1762272480944,"accel":{"x":0.004,"y":0,"z":0},"gyro":{"x":0,"y":0,"z":0},"mag":{"x":-3.56,"y":9.31,"z":-27.62},"quat":{"i":0.0099,"j":-0.029,"k":-0.0861,"r":0.9958},"euler":{"roll":1.42,"pitch":-3.21,"yaw":-9.93}}}
{"t":1762272480955,"d":{"mac":"2D0853A819F8","lat":44.831127,"lon":11.2238029,"sats":17,"qual":5,"speedKmh":58.7,"ts":"251104160800","receivedAt":1762272480955,"cpuTemp":41.9}}
{"t":1762272480955,"d":{"mac":"CEC81FB3647E","lat":44.8313181,"lon":11.2227349,"sats":19,"qual":9,"speedKmh":61.6,"ts":"251104160800","receivedAt":1762272480955,"cpuTemp":72.5}}
{"t":1762272480955,"d":{"mac":"2DA354655C1E","lat":44.8315481,"lon":11.2241992,"sats":12,"qual":4,"speedKmh":42.8,"ts":"251104160800","receivedAt":1762272480955,"cpuTemp":66.3}}
{"t":1762272480955,"d":{"mac":"A395DCE4312A","lat":44.8310709,"lon":11.2237742,"sats":14,"qual":7,"speedKmh":66.2,"ts":"251104160800","receivedAt":1762272480955,"cpuTemp":41.2}}
{"t":1762272480955,"d":{"mac":"EA9142989C04","lat":44.8314543,"lon":11.222881,"sats":18,"qual":8,"speedKmh":55.2,"ts":"251104160800","receivedAt":1762272480955,"cpuTemp":69.5}}
{"t":1762272480955,"d":{"mac":"8B33A72066DF","lat":44.8315668,"lon":11.2232788,"sats":20,"qual":4,"speedKmh":66.3,"ts":"251104160800","receivedAt":1762272480955,"cpuTemp":46.3}}
{"t":1762272480955,"d":{"mac":"421E4CF75DE7","lat":44.8306479,"lon":11.2226456,"sats":17,"qual":7,"speedKmh":70.3,"ts":"251104160800","receivedAt":1762272480955,"cpuTemp":47}}
{"t":1762272480955,"d":{"mac":"0C24633C9F02","lat":44.8315729,"lon":11.2240909,"sats":18,"qual":5,"speedKmh":66.4,"ts":"251104160800","receivedAt":1762272480955,"cpuTemp":72}}
{"t":1762272480955,"d":{"mac":"E462DD6EE488","lat":44.8312401,"lon":11.2225561,"sats":11,"qual":9,"speedKmh":62,"ts":"251104160800","receivedAt":1762272480955,"cpuTemp":45.6}}
{"t":1762272480955,"d":{"mac":"081438146791","lat":44.8317528,"lon":11.2230976,"sats":13,"qual":7,"speedKmh":57.5,"ts":"251104160800","receivedAt":1762272480955,"cpuTemp":55.8}}
{"t":1762272480956,"d":{"mac":"081BF382DE19","lat":44.8312698,"lon":11.223719,"sats":11,"qual":7,"speedKmh":45.3,"ts":"251104160800","receivedAt":1762272480956,"cpuTemp":41.3}}
{"t":1762272480956,"d":{"mac":"43161D25AD8F","lat":44.8317959,"lon":11.2235322,"sats":14,"qual":9,"speedKmh":64.3,"ts":"251104160800","receivedAt":1762272480956,"cpuTemp":72.3}}
{"t":1762272480956,"d":{"mac":"6E59708A14C5","lat":44.8313675,"lon":11.2233002,"sats":13,"qual":9,"speedKmh":58.5,"ts":"251104160800","receivedAt":1762272480956,"cpuTemp":42.1}}
{"t":1762272480956,"d":{"mac":"A19B57D57EFA","lat":44.8307335,"lon":11.2230303,"sats":16,"qual":6,"speedKmh":53.1,"ts":"251104160800","receivedAt":1762272480956,"cpuTemp":51}}
{"t":1762272480956,"d":{"mac":"2E2B37C9995F","lat":44.8309364,"lon":11.2233138,"sats":16,"qual":8,"speedKmh":47.1,"ts":"251104160800","receivedAt":1762272480956,"cpuTemp":73.3}}
{"t":1762272480956,"d":{"mac":"A20B759753CE","lat":44.8315611,"lon":11.223473,"sats":11,"qual":5,"speedKmh":36.4,"ts":"251104160800","receivedAt":1762272480956,"cpuTemp":51.2}}
{"t":1762272480956,"d":{"mac":"23BBF606B34C","lat":44.8314322,"lon":11.2229064,"sats":10,"qual":7,"speedKmh":56.7,"ts":"251104160800","receivedAt":1762272480956,"cpuTemp":68.5}}
{"t":1762272480956,"d":{"mac":"ED22C695F894","lat":44.8316533,"lon":11.2229063,"sats":10,"qual":9,"speedKmh":53,"ts":"251104160800","receivedAt":1762272480956,"cpuTemp":70.3}}
{"t":1762272480956,"d":{"mac":"20C829CEAAA5","lat":44.8314424,"lon":11.2241971,"sats":13,"qual":7,"speedKmh":62.6,"ts":"251104160800","receivedAt":1762272480956,"cpuTemp":43.9}}
{"t":1762272480956,"d":{"mac":"E1595225A892","lat":44.8314417,"lon":11.2241885,"sats":12,"qual":5,"speedKmh":57,"ts":"251104160800","receivedAt":1762272480956,"cpuTemp":71.4}}
{"t":1762272480956,"d":{"mac":"6DE88923FFA6","lat":44.8307644,"lon":11.2235598,"sats":14,"qual":9,"speedKmh":44.6,"ts":"251104160800","receivedAt":1762272480956,"cpuTemp":48.1}}
{"t":1762272480956,"d":{"mac":"85BC2E9C6B54","lat":44.8307392,"lon":11.2230797,"sats":15,"qual":9,"speedKmh":35.6,"ts":"251104160800","receivedAt":1762272480956,"cpuTemp":44.4}}
{"t":1762272480956,"d":{"mac":"2BC803FBDE91","lat":44.8308106,"lon":11.2235731,"sats":20,"qual":5,"speedKmh":56.1,"ts":"251104160800","receivedAt":1762272480956,"cpuTemp":67.1}}
{"t":1762272480956,"d":{"mac":"E248724C62CF","lat":44.8305449,"lon":11.2228245,"sats":18,"qual":8,"speedKmh":60.5,"ts":"251104160800","receivedAt":1762272480956,"cpuTemp":58.1}}
{"t":1762272480956,"d":{"mac":"C05F465852AD","lat":44.8307693,"lon":11.2231769,"sats":12,"qual":9,"speedKmh":39.3,"ts":"251104160800","receivedAt":1762272480956,"cpuTemp":67.2}}
{"t":1762272481022,"d":{"mac":"2CCF679AF52F","lat":44.6523962,"lon":10.7814112,"sats":12,"qual":5,"speedKmh":0.1,"ts":"251104160800","receivedAt":1762272481022,"accel":{"x":0.004,"y":0,"z":0},"gyro":{"x":0,"y":0,"z":0},"mag":{"x":-3.75,"y":9.38,"z":-28.44},"quat":{"i":0.0099,"j":-0.029,"k":-0.0861,"r":0.9958},"euler":{"roll":1.42,"pitch":-3.21,"yaw":-9.93}}}
{"t":1762272481022,"d":{"mac":"2D0853A819F8","lat":44.8311364,"lon":11.2237985,"sats":17,"qual":5,"speedKmh":59.1,"ts":"251104160801","receivedAt":1762272481022,"cpuTemp":41.9}}
{"t":1762272481022,"d":{"mac":"CEC81FB3647E","lat":44.8313173,"lon":11.2227495,"sats":19,"qual":9,"speedKmh":62.3,"ts":"251104160801","receivedAt":1762272481022,"cpuTemp":72.5}}
{"t":1762272481022,"d":{"mac":"2DA354655C1E","lat":44.8315419,"lon":11.2242044,"sats":12,"qual":4,"speedKmh":43.4,"ts":"251104160801","receivedAt":1762272481022,"cpuTemp":66.3}}
{"t":1762272481022,"d":{"mac":"A395DCE4312A","lat":44.8310813,"lon":11.2237696,"sats":14,"qual":7,"speedKmh":65.6,"ts":"251104160801","receivedAt":1762272481022,"cpuTemp":41.2}}
{"t":1762272481022,"d":{"mac":"EA9142989C04","lat":44.8314636,"lon":11.2228817,"sats":18,"qual":8,"speedKmh":55.8,"ts":"251104160801","receivedAt":1762272481022,"cpuTemp":69.5}}
{"t":1762272481022,"d":{"mac":"8B33A72066DF","lat":44.8315602,"lon":11.2232661,"sats":20,"qual":4,"speedKmh":66.9,"ts":"251104160801","receivedAt":1762272481022,"cpuTemp":46.3}}
{"t":1762272481022,"d":{"mac":"421E4CF75DE7","lat":44.8306528,"lon":11.2226307,"sats":17,"qual":7,"speedKmh":69.9,"ts":"251104160801","receivedAt":1762272481022,"cpuTemp":47}}
{"t":1762272481022,"d":{"mac":"0C24633C9F02","lat":44.8315667,"lon":11.2241036,"sats":18,"qual":5,"speedKmh":65.9,"ts":"251104160801","receivedAt":1762272481022,"cpuTemp":72}}
{"t":1762272481022,"d":{"mac":"E462DD6EE488","lat":44.8312496,"lon":11.2225623,"sats":11,"qual":9,"speedKmh":62.9,"ts":"251104160801","receivedAt":1762272481022,"cpuTemp":45.6}}
{"t":1762272481023,"d":{"mac":"081BF382DE19","lat":44.8312773,"lon":11.2237191,"sats":11,"qual":7,"speedKmh":44.7,"ts":"251104160801","receivedAt":1762272481023,"cpuTemp":41.3}}
{"t":1762272481023,"d":{"mac":"081438146791","lat":44.83176,"lon":11.2231066,"sats":13,"qual":7,"speedKmh":57.4,"ts":"251104160801","receivedAt":1762272481023,"cpuTemp":55.8}}
{"t":1762272481023,"d":{"mac":"43161D25AD8F","lat":44.831791,"lon":11.2235458,"sats":14,"qual":9,"speedKmh":65,"ts":"251104160801","receivedAt":1762272481023,"cpuTemp":72.3}}
{"t":1762272481023,"d":{"mac":"6E59708A14C5","lat":44.8313583,"lon":11.2233044,"sats":13,"qual":9,"speedKmh":57.8,"ts":"251104160801","receivedAt":1762272481023,"cpuTemp":42.1}}
{"t":1762272481023,"d":{"mac":"2E2B37C9995F","lat":44.830932,"lon":11.2233044,"sats":16,"qual":8,"speedKmh":47.8,"ts":"251104160801","receivedAt":1762272481023,"cpuTemp":73.3}}
{"t":1762272481023,"d":{"mac":"A20B759753CE","lat":44.8315651,"lon":11.2234667,"sats":11,"qual":5,"speedKmh":36.1,"ts":"251104160801","receivedAt":1762272481023,"cpuTemp":51.2}}
{"t":1762272481023,"d":{"mac":"23BBF606B34C","lat":44.8314416,"lon":11.2229072,"sats":10,"qual":7,"speedKmh":56.5,"ts":"251104160801","receivedAt":1762272481023,"cpuTemp":68.5}}
{"t":1762272481023,"d":{"mac":"A19B57D57EFA","lat":44.8307305,"lon":11.2230421,"sats":16,"qual":6,"speedKmh":52.9,"ts":"251104160801","receivedAt":1762272481023,"cpuTemp":51}}
{"t":1762272481023,"d":{"mac":"ED22C695F894","lat":44.8316611,"lon":11.2229119,"sats":10,"qual":9,"speedKmh":52.5,"ts":"251104160801","receivedAt":1762272481023,"cpuTemp":70.3}}
{"t":1762272481025,"d":{"mac":"20C829CEAAA5","lat":44.831432,"lon":11.2242003,"sats":13,"qual":7,"speedKmh":63.5,"ts":"251104160801","receivedAt":1762272481025,"cpuTemp":43.9}}
{"t":1762272481025,"d":{"mac":"E1595225A892","lat":44.8314325,"lon":11.2241923,"sats":12,"qual":5,"speedKmh":57.2,"ts":"251104160801","receivedAt":1762272481025,"cpuTemp":71.4}}
{"t":1762272481025,"d":{"mac":"6DE88923FFA6","lat":44.8307674,"lon":11.2235693,"sats":14,"qual":9,"speedKmh":44.3,"ts":"251104160801","receivedAt":1762272481025,"cpuTemp":48.1}}
{"t":1762272481025,"d":{"mac":"85BC2E9C6B54","lat":44.8307374,"lon":11.2230874,"sats":15,"qual":9,"speedKmh":34.8,"ts":"251104160801","receivedAt":1762272481025,"cpuTemp":44.4}}
{"t":1762272481025,"d":{"mac":"2BC803FBDE91","lat":44.8308138,"lon":11.2235856,"sats":20,"qual":5,"speedKmh":56.5,"ts":"251104160801","receivedAt":1762272481025,"cpuTemp":67.1}}
{"t":1762272481025,"d":{"mac":"E248724C62CF","lat":44.8305491,"lon":11.2228116,"sats":18,"qual":8,"speedKmh":60.3,"ts":"251104160801","receivedAt":1762272481025,"cpuTemp":58.1}}
{"t":1762272481025,"d":{"mac":"C05F465852AD","lat":44.8307674,"lon":11.2231857,"sats":12,"qual":9,"speedKmh":39.3,"ts":"251104160801","receivedAt":1762272481025,"cpuTemp":67.2}}
{"t":1762272481084,"d":{"mac":"2CCF679AF52F","lat":44.6523962,"lon":10.7814112,"sats":12,"qual":5,"speedKmh":0.1,"ts":"251104160800","receivedAt":1762272481084,"accel":{"x":0.004,"y":0,"z":-0.039},"gyro":{"x":0,"y":0,"z":0},"mag":{"x":-4.06,"y":8.81,"z":-27.88},"quat":{"i":0.0099,"j":-0.0291,"k":-0.0861,"r":0.9958},"euler":{"roll":1.42,"pitch":-3.22,"yaw":-9.93}}}
{"t":1762272481088,"d":{"mac":"2D0853A819F8","lat":44.8311457,"lon":11.2237945,"sats":17,"qual":5,"speedKmh":58.6,"ts":"251104160801","receivedAt":1762272481088,"cpuTemp":41.9}}
{"t":1762272481089,"d":{"mac":"CEC81FB3647E","lat":44.8313164,"lon":11.2227641,"sats":19,"qual":9,"speedKmh":62.4,"ts":"251104160801","receivedAt":1762272481089,"cpuTemp":72.5}}
{"t":1762272481089,"d":{"mac":"2DA354655C1E","lat":44.8315353,"lon":11.2242087,"sats":12,"qual":4,"speedKmh":43.4,"ts":"251104160801","receivedAt":1762272481089,"cpuTemp":66.3}}
{"t":1762272481089,"d":{"mac":"A395DCE4312A","lat":44.8310921,"lon":11.2237664,"sats":14,"qual":7,"speedKmh":66.2,"ts":"251104160801","receivedAt":1762272481089,"cpuTemp":41.2}}
{"t":1762272481089,"d":{"mac":"EA9142989C04","lat":44.8314728,"lon":11.2228823,"sats":18,"qual":8,"speedKmh":55,"ts":"251104160801","receivedAt":1762272481089,"cpuTemp":69.5}}
{"t":1762272481089,"d":{"mac":"8B33A72066DF","lat":44.8315528,"lon":11.2232544,"sats":20,"qual":4,"speedKmh":66.7,"ts":"251104160801","receivedAt":1762272481089,"cpuTemp":46.3}}
{"t":1762272481089,"d":{"mac":"421E4CF75DE7","lat":44.8306577,"lon":11.2226157,"sats":17,"qual":7,"speedKmh":69.9,"ts":"251104160801","receivedAt":1762272481089,"cpuTemp":47}}
{"t":1762272481089,"d":{"mac":"0C24633C9F02","lat":44.8315604,"lon":11.2241165,"sats":18,"qual":5,"speedKmh":66.3,"ts":"251104160801","receivedAt":1762272481089,"cpuTemp":72}}
{"t":1762272481089,"d":{"mac":"E462DD6EE488","lat":44.8312587,"lon":11.2225694,"sats":11,"qual":9,"speedKmh":62.4,"ts":"251104160801","receivedAt":1762272481089,"cpuTemp":45.6}}
{"t":1762272481089,"d":{"mac":"081438146791","lat":44.8317672,"lon":11.2231156,"sats":13,"qual":7,"speedKmh":57.8,"ts":"251104160801","receivedAt":1762272481089,"cpuTemp":55.8}}
{"t":1762272481089,"d":{"mac":"081BF382DE19","lat":44.8312848,"lon":11.2237193,"sats":11,"qual":7,"speedKmh":45.4,"ts":"251104160801","receivedAt":1762272481089,"cpuTemp":41.3}}
