{"t":1762354836952,"d":{"mac":"2CCF67CB6518","lat":44.8317282,"lon":11.2243828,"sats":10,"qual":2,"speedKmh":0.2,"ts":"251104150036","receivedAt":1762354836952,"accel":{"x":0.004,"y":-0.023,"z":0.059},"gyro":{"x":0.0156,"y":-0.0273,"z":0},"mag":{"x":16.44,"y":43.5,"z":5.56},"quat":{"i":-0.5135,"j":-0.4412,"k":0.3638,"r":0.6397},"euler":{"roll":-85.13,"pitch":-11,"yaw":69.36}}}
{"t":1762354836952,"d":{"mac":"2CCF679AF52F","lat":44.8316495,"lon":11.2243167,"sats":12,"qual":5,"speedKmh":0.2,"ts":"251105150036","receivedAt":1762354836952,"accel":{"x":0.051,"y":0.09,"z":-0.184},"gyro":{"x":-0.0098,"y":0.0039,"z":-0.0059},"mag":{"x":24.5,"y":24.06,"z":-4.75},"quat":{"i":-0.2812,"j":0.7691,"k":0.0687,"r":0.5699},"euler":{"roll":-147.8,"pitch":66.24,"yaw":-118.52}}}
{"t":1762354836973,"d":{"mac":"2CCF67CB6518","lat":44.831728,"lon":11.2243828,"sats":10,"qual":2,"speedKmh":0.3,"ts":"251104150036","receivedAt":1762354836973,"accel":{"x":0.043,"y":0.02,"z":-0.016},"gyro":{"x":-0.0469,"y":-0.0156,"z":0.0078},"mag":{"x":16.81,"y":43.94,"z":4.69},"quat":{"i":-0.5134,"j":-0.4419,"k":0.3642,"r":0.6392},"euler":{"roll":-85.19,"pitch":-11.01,"yaw":69.47}}}
{"t":1762354836990,"d":{"mac":"2CCF679AF52F","lat":44.8316495,"lon":11.2243167,"sats":12,"qual":5,"speedKmh":0.3,"ts":"251105150036","receivedAt":1762354836990,"accel":{"x":-0.121,"y":-0.133,"z":-0.035},"gyro":{"x":0.0312,"y":0.0137,"z":-0.0215},"mag":{"x":23.12,"y":24.06,"z":-5.19},"quat":{"i":-0.2816,"j":0.769,"k":0.0682,"r":0.5698},"euler":{"roll":-147.67,"pitch":66.18,"yaw":-118.39}}}
{"t":1762354837043,"d":{"mac":"2CCF67CB6518","lat":44.8317278,"lon":11.2243828,"sats":10,"qual":2,"speedKmh":0.3,"ts":"251104150036","receivedAt":1762354837043,"accel":{"x":-0.117,"y":-0.285,"z":-0.168},"gyro":{"x":0.0508,"y":-0.0098,"z":0.0137},"mag":{"x":16.06,"y":43.88,"z":5.94},"quat":{"i":-0.5137,"j":-0.4431,"k":0.3637,"r":0.6384},"euler":{"roll":-85.35,"pitch":-11.07,"yaw":69.56}}}
{"t":1762354837063,"d":{"mac":"2CCF679AF52F","lat":44.8316495,"lon":11.2243165,"sats":12,"qual":5,"speedKmh":0.4,"ts":"251105150036","receivedAt":1762354837062,"accel":{"x":-0.074,"y":-0.004,"z":-0.098},"gyro":{"x":-0.0078,"y":0.0059,"z":-0.0098},"mag":{"x":25,"y":25.31,"z":-4.94},"quat":{"i":-0.2664,"j":0.7748,"k":0.0563,"r":0.5706},"euler":{"roll":-147.68,"pitch":66.09,"yaw":-120.7}}}
{"t":1762354837114,"d":{"mac":"2CCF67CB6518","lat":44.8317277,"lon":11.2243827,"sats":10,"qual":2,"speedKmh":0.2,"ts":"251104150037","receivedAt":1762354837114,"accel":{"x":-0.172,"y":0.016,"z":-0.047},"gyro":{"x":-0.0293,"y":-0.0195,"z":0.0098},"mag":{"x":16.06,"y":43.94,"z":4.19},"quat":{"i":-0.5134,"j":-0.4434,"k":0.3644,"r":0.6379},"euler":{"roll":-85.35,"pitch":-11.04,"yaw":69.66}}}
{"t":1762354837125,"d":{"mac":"2CCF679AF52F","lat":44.8316495,"lon":11.2243167,"sats":12,"qual":5,"speedKmh":0.4,"ts":"251105150037","receivedAt":1762354837125,"accel":{"x":0.047,"y":-0.004,"z":0.012},"gyro":{"x":-0.0234,"y":-0.0078,"z":-0.0469},"mag":{"x":23.69,"y":25.25,"z":-4.81},"quat":{"i":-0.268,"j":0.774,"k":0.0557,"r":0.5709},"euler":{"roll":-147.26,"pitch":66.02,"yaw":-120.2}}}
{"t":1762354837163,"d":{"mac":"2CCF67CB6518","lat":44.8317277,"lon":11.2243828,"sats":10,"qual":2,"speedKmh":0.2,"ts":"251104150037","receivedAt":1762354837163,"accel":{"x":-0.078,"y":0.051,"z":-0.008},"gyro":{"x":-0.002,"y":0.0059,"z":0.0254},"mag":{"x":15.69,"y":44.25,"z":4.62},"quat":{"i":-0.5134,"j":-0.4435,"k":0.3646,"r":0.6378},"euler":{"roll":-85.36,"pitch":-11.04,"yaw":69.69}}}
{"t":1762354837191,"d":{"mac":"2CCF679AF52F","lat":44.8316495,"lon":11.2243167,"sats":12,"qual":5,"speedKmh":0.3,"ts":"251105150037","receivedAt":1762354837191,"accel":{"x":-0.008,"y":0.051,"z":-0.043},"gyro":{"x":0.0293,"y":-0.002,"z":-0.0137},"mag":{"x":26.31,"y":25.06,"z":-5.06},"quat":{"i":-0.2685,"j":0.7737,"k":0.0551,"r":0.5711},"euler":{"roll":-147.05,"pitch":65.98,"yaw":-119.99}}}
{"t":1762354837273,"d":{"mac":"2CCF67CB6518","lat":44.8317275,"lon":11.2243827,"sats":10,"qual":2,"speedKmh":0.2,"ts":"251104150037","receivedAt":1762354837273,"accel":{"x":-0.062,"y":-0.062,"z":-0.031},"gyro":{"x":-0.0117,"y":0,"z":0.0332},"mag":{"x":16.06,"y":42.75,"z":5.56},"quat":{"i":-0.5136,"j":-0.4433,"k":0.3652,"r":0.6375},"euler":{"roll":-85.36,"pitch":-10.96,"yaw":69.72}}}
{"t":1762354837298,"d":{"mac":"2CCF679AF52F","lat":44.8316497,"lon":11.2243168,"sats":11,"qual":5,"speedKmh":0.4,"ts":"251105150037","receivedAt":1762354837298,"accel":{"x":-0.047,"y":0.027,"z":-0.035},"gyro":{"x":0.0312,"y":0.0156,"z":-0.0098},"mag":{"x":25.06,"y":24.81,"z":-4.62},"quat":{"i":-0.2682,"j":0.7738,"k":0.0539,"r":0.5713},"euler":{"roll":-146.85,"pitch":65.93,"yaw":-119.91}}}
{"t":1762354837302,"d":{"mac":"2CCF67CB6518","lat":44.8317273,"lon":11.2243827,"sats":10,"qual":2,"speedKmh":0.1,"ts":"251104150037","receivedAt":1762354837302,"accel":{"x":0.105,"y":-0.094,"z":-0.07},"gyro":{"x":0.0176,"y":0.0312,"z":0.0176},"mag":{"x":15.69,"y":43.5,"z":5.12},"quat":{"i":-0.5139,"j":-0.4429,"k":0.3654,"r":0.6373},"euler":{"roll":-85.36,"pitch":-10.89,"yaw":69.71}}}
{"t":1762354837328,"d":{"mac":"2CCF679AF52F","lat":44.8316497,"lon":11.2243168,"sats":11,"qual":5,"speedKmh":0.3,"ts":"251105150037","receivedAt":1762354837328,"accel":{"x":-0.039,"y":0.176,"z":-0.098},"gyro":{"x":0.0293,"y":0.0059,"z":0.0078},"mag":{"x":24.62,"y":24.31,"z":-4.31},"quat":{"i":-0.268,"j":0.7742,"k":0.0532,"r":0.571},"euler":{"roll":-146.84,"pitch":65.87,"yaw":-119.98}}}
{"t":1762354837376,"d":{"mac":"2CCF67CB6518","lat":44.8317272,"lon":11.2243827,"sats":10,"qual":2,"speedKmh":0.2,"ts":"251104150037","receivedAt":1762354837376,"accel":{"x":0.121,"y":-0.07,"z":-0.152},"gyro":{"x":0.0566,"y":0.0293,"z":0.0137},"mag":{"x":16.06,"y":43.5,"z":5.94},"quat":{"i":-0.5139,"j":-0.4419,"k":0.366,"r":0.6378},"euler":{"roll":-85.26,"pitch":-10.81,"yaw":69.65}}}
{"t":1762354837394,"d":{"mac":"2CCF679AF52F","lat":44.8316495,"lon":11.224317,"sats":11,"qual":5,"speedKmh":0.2,"ts":"251105150037","receivedAt":1762354837394,"accel":{"x":-0.152,"y":0.012,"z":-0.043},"gyro":{"x":0.0449,"y":0.0098,"z":-0.0156},"mag":{"x":23.69,"y":23.88,"z":-4.31},"quat":{"i":-0.2673,"j":0.7745,"k":0.0518,"r":0.571},"euler":{"roll":-146.71,"pitch":65.81,"yaw":-120.03}}}
{"t":1762354837443,"d":{"mac":"2CCF67CB6518","lat":44.8317272,"lon":11.2243828,"sats":10,"qual":2,"speedKmh":0.3,"ts":"251104150037","receivedAt":1762354837443,"accel":{"x":0.043,"y":0.121,"z":-0.008},"gyro":{"x":-0.0156,"y":0.0566,"z":0.0234},"mag":{"x":15.69,"y":43.88,"z":5.94},"quat":{"i":-0.514,"j":-0.441,"k":0.3661,"r":0.6382},"euler":{"roll":-85.18,"pitch":-10.75,"yaw":69.56}}}
{"t":1762354837478,"d":{"mac":"2CCF679AF52F","lat":44.8316495,"lon":11.224317,"sats":11,"qual":5,"speedKmh":0.3,"ts":"251105150037","receivedAt":1762354837478,"accel":{"x":-0.039,"y":0.098,"z":0.07},"gyro":{"x":0.0332,"y":0.0391,"z":-0.0098},"mag":{"x":24,"y":24.5,"z":-5.12},"quat":{"i":-0.2534,"j":0.7794,"k":0.0407,"r":0.5715},"euler":{"roll":-146.63,"pitch":65.71,"yaw":-122.06}}}
{"t":1762354837506,"d":{"mac":"2CCF67CB6518","lat":44.831727,"lon":11.2243825,"sats":10,"qual":2,"speedKmh":0.2,"ts":"251104150037","receivedAt":1762354837506,"accel":{"x":0.09,"y":-0.23,"z":-0.078},"gyro":{"x":0.0293,"y":0.0566,"z":-0.0098},"mag":{"x":16.44,"y":43.12,"z":5.56},"quat":{"i":-0.5147,"j":-0.4403,"k":0.3655,"r":0.6384},"euler":{"roll":-85.19,"pitch":-10.71,"yaw":69.44}}}
{"t":1762354837519,"d":{"mac":"2CCF679AF52F","lat":44.8316495,"lon":11.2243172,"sats":11,"qual":5,"speedKmh":0.3,"ts":"251105150037","receivedAt":1762354837519,"accel":{"x":-0.066,"y":-0.133,"z":0.117},"gyro":{"x":0.0332,"y":-0.0098,"z":-0.0469},"mag":{"x":25,"y":25.75,"z":-5},"quat":{"i":-0.2536,"j":0.7795,"k":0.0397,"r":0.5714},"euler":{"roll":-146.45,"pitch":65.63,"yaw":-121.95}}}
{"t":1762354837583,"d":{"mac":"2CCF679AF52F","lat":44.8316495,"lon":11.2243172,"sats":12,"qual":5,"speedKmh":0.3,"ts":"251105150037","receivedAt":1762354837583,"accel":{"x":-0.48,"y":-0.293,"z":0.18},"gyro":{"x":-0.0723,"y":-0.082,"z":-0.1113},"mag":{"x":23.25,"y":25.19,"z":-4.88},"quat":{"i":-0.2558,"j":0.778,"k":0.0384,"r":0.5726},"euler":{"roll":-145.65,"pitch":65.59,"yaw":-121.08}}}
{"t":1762354837583,"d":{"mac":"2CCF67CB6518","lat":44.8317268,"lon":11.2243823,"sats":10,"qual":2,"speedKmh":0.2,"ts":"251104150037","receivedAt":1762354837583,"accel":{"x":-0.285,"y":0.191,"z":0.07},"gyro":{"x":-0.125,"y":-0.0059,"z":-0.0664},"mag":{"x":15.69,"y":45.75,"z":4.19},"quat":{"i":-0.514,"j":-0.4406,"k":0.3642,"r":0.6396},"euler":{"roll":-85.12,"pitch":-10.9,"yaw":69.33}}}
{"t":1762354837646,"d":{"mac":"2CCF679AF52F","lat":44.8316495,"lon":11.2243173,"sats":11,"qual":5,"speedKmh":0.3,"ts":"251105150037","receivedAt":1762354837646,"accel":{"x":-0.855,"y":-0.734,"z":0.383},"gyro":{"x":-0.1406,"y":-0.2441,"z":-0.2246},"mag":{"x":24.62,"y":25.19,"z":-4.44},"quat":{"i":-0.2603,"j":0.7745,"k":0.0392,"r":0.5752},"euler":{"roll":-144.55,"pitch":65.7,"yaw":-119.54}}}
{"t":1762354837661,"d":{"mac":"2CCF67CB6518","lat":44.8317265,"lon":11.224382,"sats":10,"qual":2,"speedKmh":0.3,"ts":"251104150037","receivedAt":1762354837661,"accel":{"x":-0.629,"y":-0.496,"z":-0.07},"gyro":{"x":-0.0547,"y":-0.1113,"z":-0.1523},"mag":{"x":15.69,"y":44.62,"z":6.38},"quat":{"i":-0.5141,"j":-0.4437,"k":0.3622,"r":0.6385},"euler":{"roll":-85.46,"pitch":-11.2,"yaw":69.48}}}
{"t":1762354837713,"d":{"mac":"2CCF67CB6518","lat":44.8317262,"lon":11.2243815,"sats":10,"qual":2,"speedKmh":0.5,"ts":"251104150037","receivedAt":1762354837713,"accel":{"x":-0.676,"y":-0.281,"z":-0.242},"gyro":{"x":-0.1152,"y":-0.2207,"z":-0.2129},"mag":{"x":15.31,"y":44.62,"z":5.94},"quat":{"i":-0.5115,"j":-0.4496,"k":0.3606,"r":0.6373},"euler":{"roll":-85.76,"pitch":-11.78,"yaw":69.95}}}
{"t":1762354837720,"d":{"mac":"2CCF679AF52F","lat":44.8316495,"lon":11.2243173,"sats":11,"qual":5,"speedKmh":0.2,"ts":"251105150037","receivedAt":1762354837720,"accel":{"x":-1.055,"y":-0.711,"z":0.84},"gyro":{"x":-0.291,"y":-0.3691,"z":-0.3145},"mag":{"x":24.56,"y":25.31,"z":-5},"quat":{"i":-0.2682,"j":0.7676,"k":0.0411,"r":0.5807},"euler":{"roll":-142.37,"pitch":65.99,"yaw":-116.52}}}
{"t":1762354837783,"d":{"mac":"2CCF67CB6518","lat":44.831726,"lon":11.2243815,"sats":10,"qual":2,"speedKmh":0.5,"ts":"251104150037","receivedAt":1762354837783,"accel":{"x":-1.023,"y":-0.336,"z":0.047},"gyro":{"x":-0.2949,"y":-0.3828,"z":-0.1973},"mag":{"x":15.38,"y":45,"z":7.25},"quat":{"i":-0.5074,"j":-0.4716,"k":0.3582,"r":0.626},"euler":{"roll":-87.63,"pitch":-13.12,"yaw":72.15}}}
{"t":1762354837793,"d":{"mac":"2CCF679AF52F","lat":44.8316495,"lon":11.2243175,"sats":11,"qual":2,"speedKmh":0.3,"ts":"251105150037","receivedAt":1762354837793,"accel":{"x":-0.992,"y":0.023,"z":0.422},"gyro":{"x":-0.6582,"y":-0.6758,"z":-0.5371},"mag":{"x":23.75,"y":25.56,"z":-4.62},"quat":{"i":-0.296,"j":0.7452,"k":0.0513,"r":0.5953},"euler":{"roll":-136.01,"pitch":66.59,"yaw":-106.95}}}
{"t":1762354837832,"d":{"mac":"2CCF679AF52F","lat":44.8316495,"lon":11.2243183,"sats":11,"qual":2,"speedKmh":1,"ts":"251105150037","receivedAt":1762354837832,"accel":{"x":-0.691,"y":0.891,"z":-0.289},"gyro":{"x":-1.1543,"y":-0.8281,"z":-0.4785},"mag":{"x":22,"y":25.94,"z":-4.81},"quat":{"i":-0.3182,"j":0.7283,"k":0.0657,"r":0.6034},"euler":{"roll":-132.4,"pitch":67.03,"yaw":-100.24}}}
{"t":1762354837843,"d":{"mac":"2CCF67CB6518","lat":44.8317257,"lon":11.2243813,"sats":10,"qual":2,"speedKmh":0.7,"ts":"251104150037","receivedAt":1762354837843,"accel":{"x":-0.359,"y":-1.133,"z":0.41},"gyro":{"x":-0.127,"y":-0.752,"z":-0.4531},"mag":{"x":14.25,"y":45,"z":5.5},"quat":{"i":-0.4999,"j":-0.4883,"k":0.3594,"r":0.6183},"euler":{"roll":-88.63,"pitch":-14.15,"yaw":74.16}}}
{"t":1762354837910,"d":{"mac":"2CCF679AF52F","lat":44.8316495,"lon":11.2243188,"sats":11,"qual":2,"speedKmh":1.2,"ts":"251105150037","receivedAt":1762354837910,"accel":{"x":-0.324,"y":1.262,"z":-1.824},"gyro":{"x":-1.2207,"y":-0.6914,"z":-0.3516},"mag":{"x":22.69,"y":25.62,"z":-3.69},"quat":{"i":-0.3323,"j":0.7154,"k":0.0793,"r":0.6094},"euler":{"roll":-129.98,"pitch":67.62,"yaw":-95.45}}}
{"t":1762354837921,"d":{"mac":"2CCF67CB6518","lat":44.8317252,"lon":11.2243812,"sats":10,"qual":2,"speedKmh":0.9,"ts":"251104150037","receivedAt":1762354837921,"accel":{"x":0.859,"y":-1.527,"z":-0.223},"gyro":{"x":-0.0762,"y":-0.5977,"z":-0.582},"mag":{"x":13.12,"y":43.88,"z":5.56},"quat":{"i":-0.4885,"j":-0.5065,"k":0.3588,"r":0.6133},"euler":{"roll":-89.42,"pitch":-15.71,"yaw":76.2}}}
{"t":1762354837976,"d":{"mac":"2CCF679AF52F","lat":44.8316495,"lon":11.2243192,"sats":10,"qual":2,"speedKmh":1.3,"ts":"251105150037","receivedAt":1762354837976,"accel":{"x":0.215,"y":1.23,"z":-1.793},"gyro":{"x":-0.9141,"y":-0.1914,"z":-0.0293},"mag":{"x":24.25,"y":26.06,"z":-2.12},"quat":{"i":-0.3607,"j":0.6993,"k":0.1064,"r":0.608},"euler":{"roll":-129.42,"pitch":67.98,"yaw":-90.09}}}
{"t":1762354837983,"d":{"mac":"2CCF67CB6518","lat":44.8317248,"lon":11.2243815,"sats":10,"qual":2,"speedKmh":1.1,"ts":"251104150037","receivedAt":1762354837983,"accel":{"x":0.73,"y":-0.109,"z":1.605},"gyro":{"x":0.7578,"y":-0.1094,"z":-0.5391},"mag":{"x":10.56,"y":45.38,"z":4.62},"quat":{"i":-0.4573,"j":-0.5233,"k":0.361,"r":0.6219},"euler":{"roll":-87.94,"pitch":-18.7,"yaw":78.32}}}
{"t":1762354838054,"d":{"mac":"2CCF67CB6518","lat":44.8317245,"lon":11.2243815,"sats":10,"qual":2,"speedKmh":0.9,"ts":"251104150037","receivedAt":1762354838054,"accel":{"x":0.777,"y":0.676,"z":0.762},"gyro":{"x":0.5801,"y":0.0098,"z":-0.543},"mag":{"x":9.06,"y":45.75,"z":2},"quat":{"i":-0.4384,"j":-0.5235,"k":0.3627,"r":0.6342},"euler":{"roll":-85.88,"pitch":-20.24,"yaw":78.39}}}
{"t":1762354838054,"d":{"mac":"2CCF679AF52F","lat":44.8316497,"lon":11.2243192,"sats":12,"qual":2,"speedKmh":1.2,"ts":"251105150037","receivedAt":1762354838054,"accel":{"x":0.406,"y":1.414,"z":-1.961},"gyro":{"x":-0.8789,"y":-0.125,"z":0.1367},"mag":{"x":24.25,"y":26.06,"z":-2.12},"quat":{"i":-0.3729,"j":0.6948,"k":0.1245,"r":0.6022},"euler":{"roll":-131.43,"pitch":68.4,"yaw":-89.47}}}
{"t":1762354838113,"d":{"mac":"2CCF67CB6518","lat":44.8317243,"lon":11.2243813,"sats":10,"qual":2,"speedKmh":0.6,"ts":"251104150038","receivedAt":1762354838113,"accel":{"x":-0.172,"y":2.844,"z":0.883},"gyro":{"x":-0.6367,"y":0.1875,"z":-0.875},"mag":{"x":7.19,"y":45.06,"z":1.12},"quat":{"i":-0.4316,"j":-0.5292,"k":0.3516,"r":0.6404},"euler":{"roll":-85.83,"pitch":-21.98,"yaw":78}}}
{"t":1762354838135,"d":{"mac":"2CCF679AF52F","lat":44.8316498,"lon":11.224319,"sats":12,"qual":2,"speedKmh":1.2,"ts":"251105150038","receivedAt":1762354838135,"accel":{"x":1.703,"y":0.902,"z":-1.586},"gyro":{"x":-0.5801,"y":0.1934,"z":0.1621},"mag":{"x":23.81,"y":23.75,"z":-1.31},"quat":{"i":-0.3815,"j":0.6941,"k":0.1397,"r":0.5943},"euler":{"roll":-134.46,"pitch":68.69,"yaw":-90.4}}}
{"t":1762354838191,"d":{"mac":"2CCF67CB6518","lat":44.8317242,"lon":11.2243815,"sats":10,"qual":2,"speedKmh":0.4,"ts":"251104150038","receivedAt":1762354838191,"accel":{"x":-0.004,"y":3.484,"z":2.223},"gyro":{"x":0.5918,"y":0.7754,"z":-3.1133},"mag":{"x":-1.69,"y":46.81,"z":3.69},"quat":{"i":-0.3873,"j":-0.5553,"k":0.266,"r":0.6863},"euler":{"roll":-84.25,"pitch":-33.79,"yaw":73.09}}}
{"t":1762354838199,"d":{"mac":"2CCF679AF52F","lat":44.8316497,"lon":11.2243188,"sats":12,"qual":2,"speedKmh":0.9,"ts":"251105150038","receivedAt":1762354838198,"accel":{"x":1.09,"y":1.02,"z":-1.258},"gyro":{"x":-0.1543,"y":0.2734,"z":0.2578},"mag":{"x":23.56,"y":24.88,"z":-0.94},"quat":{"i":-0.3591,"j":0.7164,"k":0.1323,"r":0.5833},"euler":{"roll":-141.11,"pitch":68.56,"yaw":-99.69}}}
{"t":1762354838320,"d":{"mac":"2CCF679AF52F","lat":44.8316493,"lon":11.2243185,"sats":12,"qual":2,"speedKmh":0.4,"ts":"251105150038","receivedAt":1762354838320,"accel":{"x":0.844,"y":0.25,"z":-1.031},"gyro":{"x":0.2832,"y":0.2539,"z":0.2559},"mag":{"x":24.5,"y":22.88,"z":0.5},"quat":{"i":-0.3463,"j":0.7273,"k":0.1266,"r":0.5789},"euler":{"roll":-143.95,"pitch":68.4,"yaw":-104.15}}}
{"t":1762354838334,"d":{"mac":"2CCF679AF52F","lat":44.831649,"lon":11.2243178,"sats":12,"qual":2,"speedKmh":0.6,"ts":"251105150038","receivedAt":1762354838334,"accel":{"x":0.758,"y":0.258,"z":-0.586},"gyro":{"x":0.5391,"y":0.2734,"z":0.2715},"mag":{"x":24.5,"y":22.88,"z":0.5},"quat":{"i":-0.3252,"j":0.7393,"k":0.1118,"r":0.5789},"euler":{"roll":-145.27,"pitch":68.24,"yaw":-108.59}}}
{"t":1762354838393,"d":{"mac":"2CCF679AF52F","lat":44.8316488,"lon":11.2243172,"sats":12,"qual":2,"speedKmh":1.1,"ts":"251105150038","receivedAt":1762354838393,"accel":{"x":1.141,"y":0.086,"z":-0.16},"gyro":{"x":1.1113,"y":0.125,"z":0.3027},"mag":{"x":25.69,"y":25.56,"z":-1.44},"quat":{"i":-0.2731,"j":0.7623,"k":0.0716,"r":0.5825},"euler":{"roll":-146.12,"pitch":67.99,"yaw":-117.37}}}
{"t":1762354838408,"d":{"mac":"2CCF67CB6518","lat":44.8317242,"lon":11.2243817,"sats":10,"qual":2,"speedKmh":0.3,"ts":"251104150038","receivedAt":1762354838408,"accel":{"x":0.242,"y":5.508,"z":2.344},"gyro":{"x":-0.082,"y":0.5898,"z":-2.9688},"mag":{"x":-7.25,"y":46.06,"z":1.94},"quat":{"i":-0.3416,"j":-0.5692,"k":0.2094,"r":0.718},"euler":{"roll":-80.75,"pitch":-42.4,"yaw":69.02}}}
{"t":1762354838449,"d":{"mac":"2CCF679AF52F","lat":44.8316488,"lon":11.2243168,"sats":12,"qual":2,"speedKmh":1.2,"ts":"251105150038","receivedAt":1762354838448,"accel":{"x":1.148,"y":0.441,"z":-0.172},"gyro":{"x":1.2773,"y":-0.1191,"z":0.2617},"mag":{"x":25.69,"y":24.44,"z":-3.25},"quat":{"i":-0.2498,"j":0.7663,"k":0.0522,"r":0.5897},"euler":{"roll":-144.35,"pitch":68.4,"yaw":-119.24}}}
{"t":1762354838471,"d":{"mac":"2CCF67CB6518","lat":44.8317243,"lon":11.2243817,"sats":10,"qual":2,"speedKmh":1.1,"ts":"251104150038","receivedAt":1762354838471,"accel":{"x":-0.113,"y":1.434,"z":0.957},"gyro":{"x":-0.6621,"y":0.1426,"z":-2.2793},"mag":{"x":-20.44,"y":42.31,"z":1.5},"quat":{"i":-0.2886,"j":-0.5998,"k":0.096,"r":0.7401},"euler":{"roll":-78.13,"pitch":-56.35,"yaw":61.78}}}
{"t":1762354838471,"d":{"mac":"2CCF67CB6518","lat":44.8317245,"lon":11.2243815,"sats":10,"qual":2,"speedKmh":2.1,"ts":"251104150038","receivedAt":1762354838471,"accel":{"x":-0.059,"y":1.836,"z":0.238},"gyro":{"x":-0.7344,"y":0.0547,"z":-1.666},"mag":{"x":-23.75,"y":40.75,"z":3.25},"quat":{"i":-0.2714,"j":-0.6128,"k":0.0499,"r":0.7405},"euler":{"roll":-77.61,"pitch":-61.71,"yaw":59.02}}}
{"t":1762354838471,"d":{"mac":"2CCF67CB6518","lat":44.8317248,"lon":11.2243812,"sats":10,"qual":2,"speedKmh":2.3,"ts":"251104150038","receivedAt":1762354838471,"accel":{"x":1.52,"y":-0.414,"z":0.586},"gyro":{"x":-1.1816,"y":-0.125,"z":-1.6191},"mag":{"x":-27.88,"y":38.06,"z":5.88},"quat":{"i":-0.2648,"j":-0.6238,"k":0.0051,"r":0.7354},"euler":{"roll":-78.35,"pitch":-66.17,"yaw":56.72}}}
{"t":1762354838491,"d":{"mac":"2CCF679AF52F","lat":44.8316488,"lon":11.2243165,"sats":11,"qual":2,"speedKmh":1.3,"ts":"251105150038","receivedAt":1762354838491,"accel":{"x":1.543,"y":0.957,"z":0.477},"gyro":{"x":0.7168,"y":-0.3848,"z":0.1602},"mag":{"x":24.19,"y":24.62,"z":-4.12},"quat":{"i":-0.2297,"j":0.765,"k":0.0371,"r":0.6006},"euler":{"roll":-141.53,"pitch":69.37,"yaw":-119.42}}}
{"t":1762354838534,"d":{"mac":"2CCF67CB6518","lat":44.8317252,"lon":11.2243803,"sats":10,"qual":2,"speedKmh":2.7,"ts":"251104150038","receivedAt":1762354838534,"accel":{"x":0.258,"y":-1.078,"z":0.211},"gyro":{"x":-1.625,"y":-0.3379,"z":-1.5059},"mag":{"x":-29.69,"y":34.69,"z":8.06},"quat":{"i":-0.2642,"j":-0.6385,"k":-0.043,"r":0.7215},"euler":{"roll":-82.17,"pitch":-70.76,"yaw":56.71}}}
{"t":1762354838581,"d":{"mac":"2CCF67CB6518","lat":44.8317255,"lon":11.22438,"sats":10,"qual":2,"speedKmh":2.9,"ts":"251104150038","receivedAt":1762354838581,"accel":{"x":0.434,"y":-2.109,"z":-3.043},"gyro":{"x":-1.1914,"y":0.1387,"z":-0.5195},"mag":{"x":-33.75,"y":29.75,"z":14.69},"quat":{"i":-0.2913,"j":-0.636,"k":-0.1406,"r":0.7006},"euler":{"roll":-84.69,"pitch":-76.68,"yaw":48.87}}}
{"t":1762354838583,"d":{"mac":"2CCF679AF52F","lat":44.8316487,"lon":11.2243168,"sats":12,"qual":2,"speedKmh":0.7,"ts":"251105150038","receivedAt":1762354838583,"accel":{"x":0.207,"y":0.848,"z":0.418},"gyro":{"x":0.0449,"y":-0.2969,"z":0.125},"mag":{"x":24.81,"y":23.94,"z":-5.5},"quat":{"i":-0.2222,"j":0.7606,"k":0.0335,"r":0.609},"euler":{"roll":-139.35,"pitch":70.28,"yaw":-118.19}}}
{"t":1762354838634,"d":{"mac":"2CCF679AF52F","lat":44.8316487,"lon":11.2243167,"sats":12,"qual":2,"speedKmh":0.6,"ts":"251105150038","receivedAt":1762354838634,"accel":{"x":-1.129,"y":-3.301,"z":1.473},"gyro":{"x":1.2832,"y":0.0605,"z":0.082},"mag":{"x":24.88,"y":25.19,"z":-5.69},"quat":{"i":-0.2054,"j":0.7609,"k":0.0353,"r":0.6146},"euler":{"roll":-140.63,"pitch":71.75,"yaw":-120.78}}}
{"t":1762354838653,"d":{"mac":"2CCF67CB6518","lat":44.8317258,"lon":11.2243802,"sats":10,"qual":2,"speedKmh":2.5,"ts":"251104150038","receivedAt":1762354838653,"accel":{"x":1.301,"y":-2.574,"z":-3.348},"gyro":{"x":-1.1406,"y":0.0352,"z":-0.1816},"mag":{"x":-35.25,"y":27.5,"z":15.19},"quat":{"i":-0.3041,"j":-0.6334,"k":-0.166,"r":0.6919},"euler":{"roll":-86.59,"pitch":-77.81,"yaw":47.53}}}
{"t":1762354838748,"d":{"mac":"2CCF679AF52F","lat":44.8316487,"lon":11.2243167,"sats":12,"qual":2,"speedKmh":0.5,"ts":"251105150038","receivedAt":1762354838748,"accel":{"x":1.238,"y":-1.094,"z":1.977},"gyro":{"x":1.5879,"y":0.2344,"z":0.2559},"mag":{"x":25.81,"y":25.06,"z":-7.88},"quat":{"i":-0.1804,"j":0.7637,"k":0.0081,"r":0.6198},"euler":{"roll":-137.64,"pitch":71.73,"yaw":-122.12}}}
{"t":1762354838756,"d":{"mac":"2CCF679AF52F","lat":44.8316485,"lon":11.2243167,"sats":11,"qual":2,"speedKmh":0.5,"ts":"251105150038","receivedAt":1762354838756,"accel":{"x":0.348,"y":-0.211,"z":1.672},"gyro":{"x":-0.0234,"y":0.2051,"z":0.2832},"mag":{"x":25.19,"y":23.56,"z":-8.19},"quat":{"i":-0.1615,"j":0.7722,"k":-0.0027,"r":0.6145},"euler":{"roll":-140.38,"pitch":71.48,"yaw":-127.32}}}
{"t":1762354838775,"d":{"mac":"2CCF67CB6518","lat":44.8317262,"lon":11.2243805,"sats":10,"qual":2,"speedKmh":2.1,"ts":"251104150038","receivedAt":1762354838775,"accel":{"x":-0.426,"y":-1.469,"z":-2.957},"gyro":{"x":0.0527,"y":-0.4258,"z":0.1855},"mag":{"x":-35.25,"y":27.81,"z":17.69},"quat":{"i":-0.3205,"j":-0.6376,"k":-0.1688,"r":0.6799},"euler":{"roll":-94.78,"pitch":-77.21,"yaw":54.03}}}
{"t":1762354838775,"d":{"mac":"2CCF67CB6518","lat":44.8317258,"lon":11.2243802,"sats":11,"qual":2,"speedKmh":1.1,"ts":"251104150038","receivedAt":1762354838775,"accel":{"x":-0.898,"y":1.484,"z":-1.367},"gyro":{"x":-0.6641,"y":-0.2637,"z":0.2441},"mag":{"x":-34.5,"y":26.69,"z":17.38},"quat":{"i":-0.3312,"j":-0.6419,"k":-0.1663,"r":0.6713},"euler":{"roll":-100.66,"pitch":-76.39,"yaw":59.16}}}
{"t":1762354838850,"d":{"mac":"2CCF67CB6518","lat":44.8317258,"lon":11.2243802,"sats":11,"qual":2,"speedKmh":0.7,"ts":"251104150038","receivedAt":1762354838850,"accel":{"x":-0.23,"y":-1.211,"z":-0.484},"gyro":{"x":-0.4707,"y":-0.2578,"z":0.7168},"mag":{"x":-32.62,"y":30.06,"z":19.5},"quat":{"i":-0.3508,"j":-0.6376,"k":-0.1686,"r":0.6648},"euler":{"roll":-103.26,"pitch":-75.03,"yaw":59.78}}}
{"t":1762354838867,"d":{"mac":"2CCF679AF52F","lat":44.8316487,"lon":11.224316,"sats":10,"qual":2,"speedKmh":1,"ts":"251105150038","receivedAt":1762354838867,"accel":{"x":1.258,"y":-1.832,"z":1.633},"gyro":{"x":0.8828,"y":0.1094,"z":-0.1191},"mag":{"x":25.38,"y":24.62,"z":-7.62},"quat":{"i":-0.1519,"j":0.774,"k":-0.0212,"r":0.6143},"euler":{"roll":-138.09,"pitch":70.84,"yaw":-127.34}}}
{"t":1762354838908,"d":{"mac":"2CCF679AF52F","lat":44.8316485,"lon":11.2243157,"sats":10,"qual":5,"speedKmh":1.1,"ts":"251105150038","receivedAt":1762354838908,"accel":{"x":0.805,"y":0.383,"z":1.48},"gyro":{"x":0.5547,"y":0.0469,"z":-0.166},"mag":{"x":26.25,"y":24.31,"z":-7.69},"quat":{"i":-0.1445,"j":0.7747,"k":-0.0358,"r":0.6146},"euler":{"roll":-136.07,"pitch":70.37,"yaw":-127.12}}}
{"t":1762354838928,"d":{"mac":"2CCF67CB6518","lat":44.8317258,"lon":11.2243803,"sats":11,"qual":2,"speedKmh":0.7,"ts":"251104150038","receivedAt":1762354838928,"accel":{"x":-0.277,"y":2.359,"z":-2.113},"gyro":{"x":-0.623,"y":-0.2383,"z":0.3027},"mag":{"x":-32.31,"y":26.31,"z":21.25},"quat":{"i":-0.3777,"j":-0.637,"k":-0.1669,"r":0.651},"euler":{"roll":-109.11,"pitch":-72.82,"yaw":63.27}}}
{"t":1762354838968,"d":{"mac":"2CCF679AF52F","lat":44.8316483,"lon":11.2243155,"sats":11,"qual":5,"speedKmh":1,"ts":"251105150038","receivedAt":1762354838968,"accel":{"x":0.355,"y":0.301,"z":1.133},"gyro":{"x":0.8535,"y":-0.0215,"z":-0.1055},"mag":{"x":24.19,"y":25.5,"z":-9.56},"quat":{"i":-0.1373,"j":0.7736,"k":-0.0511,"r":0.6165},"euler":{"roll":-133.37,"pitch":70.01,"yaw":-126.27}}}
{"t":1762354839030,"d":{"mac":"2CCF679AF52F","lat":44.8316482,"lon":11.224315,"sats":12,"qual":2,"speedKmh":1.3,"ts":"251105150038","receivedAt":1762354839030,"accel":{"x":-0.23,"y":0.512,"z":0.738},"gyro":{"x":0.2617,"y":-0.0098,"z":0.3516},"mag":{"x":24.12,"y":26.44,"z":-12.81},"quat":{"i":-0.1055,"j":0.7722,"k":-0.0833,"r":0.6209},"euler":{"roll":-129.61,"pitch":70.28,"yaw":-127.78}}}
{"t":1762354839032,"d":{"mac":"2CCF67CB6518","lat":44.831726,"lon":11.2243805,"sats":11,"qual":2,"speedKmh":0.7,"ts":"251104150038","receivedAt":1762354839032,"accel":{"x":-0.59,"y":-0.762,"z":-3.316},"gyro":{"x":1.3828,"y":0.1719,"z":0.2715},"mag":{"x":-30.44,"y":28.12,"z":21.69},"quat":{"i":-0.3813,"j":-0.6344,"k":-0.1537,"r":0.6546},"euler":{"roll":-107.46,"pitch":-71.4,"yaw":62.38}}}
{"t":1762354839093,"d":{"mac":"2CCF67CB6518","lat":44.8317257,"lon":11.2243805,"sats":11,"qual":2,"speedKmh":0.5,"ts":"251104150038","receivedAt":1762354839093,"accel":{"x":2.723,"y":-2.07,"z":1.59},"gyro":{"x":2.6074,"y":0.4531,"z":-0.2266},"mag":{"x":-31.19,"y":30.81,"z":18.56},"quat":{"i":-0.3382,"j":-0.6381,"k":-0.1224,"r":0.6808},"euler":{"roll":-98.04,"pitch":-72.1,"yaw":59.54}}}
{"t":1762354839106,"d":{"mac":"2CCF679AF52F","lat":44.831648,"lon":11.2243145,"sats":12,"qual":2,"speedKmh":1.5,"ts":"251105150038","receivedAt":1762354839106,"accel":{"x":0.461,"y":0.648,"z":0.078},"gyro":{"x":0.0391,"y":0.0762,"z":0.2168},"mag":{"x":24.12,"y":26.44,"z":-12.81},"quat":{"i":-0.0981,"j":0.7726,"k":-0.0813,"r":0.622},"euler":{"roll":-130.7,"pitch":70.94,"yaw":-129.32}}}
{"t":1762354839143,"d":{"mac":"2CCF67CB6518","lat":44.8317255,"lon":11.2243805,"sats":11,"qual":2,"speedKmh":0.5,"ts":"251104150039","receivedAt":1762354839143,"accel":{"x":1.555,"y":2.305,"z":2.613},"gyro":{"x":-0.8652,"y":0.75,"z":0.498},"mag":{"x":-31.19,"y":30.81,"z":18.56},"quat":{"i":-0.3202,"j":-0.6273,"k":-0.1089,"r":0.7015},"euler":{"roll":-88.55,"pitch":-71.77,"yaw":52.76}}}
{"t":1762354839174,"d":{"mac":"2CCF679AF52F","lat":44.8316482,"lon":11.2243143,"sats":12,"qual":2,"speedKmh":1.3,"ts":"251105150039","receivedAt":1762354839174,"accel":{"x":0.156,"y":0.398,"z":-1.391},"gyro":{"x":-0.1797,"y":0.3223,"z":0.0703},"mag":{"x":25.12,"y":26.25,"z":-11.94},"quat":{"i":-0.0965,"j":0.7759,"k":-0.0773,"r":0.6187},"euler":{"roll":-132.92,"pitch":70.92,"yaw":-131.34}}}
{"t":1762354839298,"d":{"mac":"2CCF679AF52F","lat":44.8316482,"lon":11.2243143,"sats":12,"qual":2,"speedKmh":1.1,"ts":"251105150039","receivedAt":1762354839298,"accel":{"x":-0.543,"y":-1.078,"z":0.504},"gyro":{"x":0.3789,"y":0.3652,"z":0.0488},"mag":{"x":25.12,"y":26.25,"z":-11.94},"quat":{"i":-0.0852,"j":0.7858,"k":-0.0894,"r":0.6061},"euler":{"roll":-135.66,"pitch":69.59,"yaw":-136}}}
{"t":1762354839306,"d":{"mac":"2CCF679AF52F","lat":44.831648,"lon":11.2243147,"sats":12,"qual":2,"speedKmh":0.7,"ts":"251105150039","receivedAt":1762354839305,"accel":{"x":0.031,"y":-1.215,"z":1.59},"gyro":{"x":-0.4414,"y":-0.4766,"z":-0.0312},"mag":{"x":25.12,"y":25.88,"z":-11.88},"quat":{"i":-0.0824,"j":0.7891,"k":-0.0917,"r":0.6017},"euler":{"roll":-136.73,"pitch":69.15,"yaw":-137.49}}}
{"t":1762354839374,"d":{"mac":"2CCF679AF52F","lat":44.8316478,"lon":11.224315,"sats":12,"qual":2,"speedKmh":0.9,"ts":"251105150039","receivedAt":1762354839374,"accel":{"x":-8.074,"y":-5.715,"z":9.434},"gyro":{"x":-4.0996,"y":-1.9727,"z":-2.2773},"mag":{"x":25.44,"y":25.31,"z":-10},"quat":{"i":-0.1328,"j":0.7703,"k":-0.0514,"r":0.6216},"euler":{"roll":-132.27,"pitch":70.73,"yaw":-125.58}}}
{"t":1762354839412,"d":{"mac":"2CCF679AF52F","lat":44.8316475,"lon":11.2243168,"sats":12,"qual":2,"speedKmh":2.6,"ts":"251105150039","receivedAt":1762354839412,"accel":{"x":-0.668,"y":0.586,"z":-30.805},"gyro":{"x":16.373,"y":-1.4141,"z":0.1016},"mag":{"x":15.38,"y":33.38,"z":-17.56},"quat":{"i":-0.1475,"j":0.6368,"k":-0.2454,"r":0.7159},"euler":{"roll":-74.48,"pitch":57.08,"yaw":-82.76}}}
{"t":1762354839476,"d":{"mac":"2CCF67CB6518","lat":44.8317257,"lon":11.2243808,"sats":11,"qual":2,"speedKmh":0.5,"ts":"251104150039","receivedAt":1762354839475,"accel":{"x":-0.211,"y":-2.324,"z":-0.332},"gyro":{"x":-0.1367,"y":0.1016,"z":0.1621},"mag":{"x":-31.19,"y":31.56,"z":16.88},"quat":{"i":-0.3816,"j":-0.5917,"k":-0.1445,"r":0.6953},"euler":{"roll":-88.65,"pitch":-68.92,"yaw":44.18}}}
{"t":1762354839476,"d":{"mac":"2CCF67CB6518","lat":44.8317257,"lon":11.2243807,"sats":11,"qual":2,"speedKmh":0.5,"ts":"251104150039","receivedAt":1762354839476,"accel":{"x":-0.188,"y":-2.59,"z":-2.613},"gyro":{"x":-0.3711,"y":0.2695,"z":0.0488},"mag":{"x":-31.56,"y":30.44,"z":17.31},"quat":{"i":-0.3788,"j":-0.5957,"k":-0.1439,"r":0.6935},"euler":{"roll":-89.46,"pitch":-69.28,"yaw":45.32}}}
{"t":1762354839476,"d":{"mac":"2CCF67CB6518","lat":44.8317255,"lon":11.2243807,"sats":11,"qual":2,"speedKmh":0.5,"ts":"251104150039","receivedAt":1762354839476,"accel":{"x":-1.129,"y":0.73,"z":-1.316},"gyro":{"x":-0.2617,"y":0.6289,"z":0.0918},"mag":{"x":-31.56,"y":31.19,"z":17.31},"quat":{"i":-0.387,"j":-0.5754,"k":-0.1511,"r":0.7045},"euler":{"roll":-84.12,"pitch":-68.08,"yaw":38.51}}}
{"t":1762354839482,"d":{"mac":"2CCF67CB6518","lat":44.8317253,"lon":11.2243815,"sats":10,"qual":2,"speedKmh":1,"ts":"251104150039","receivedAt":1762354839482,"accel":{"x":-3.617,"y":-2.762,"z":0.719},"gyro":{"x":0.9941,"y":0.4238,"z":0.0703},"mag":{"x":-31.19,"y":31.62,"z":15.12},"quat":{"i":-0.3824,"j":-0.5668,"k":-0.1446,"r":0.7152},"euler":{"roll":-80.39,"pitch":-67.13,"yaw":35.7}}}
{"t":1762354839482,"d":{"mac":"2CCF67CB6518","lat":44.8317252,"lon":11.2243818,"sats":11,"qual":2,"speedKmh":1,"ts":"251104150039","receivedAt":1762354839482,"accel":{"x":1.406,"y":-3.445,"z":-1.152},"gyro":{"x":1.373,"y":0.1348,"z":-0.1328},"mag":{"x":-31.19,"y":32.75,"z":11.62},"quat":{"i":-0.3535,"j":-0.5671,"k":-0.1301,"r":0.7325},"euler":{"roll":-73.89,"pitch":-67.33,"yaw":33.07}}}
{"t":1762354839490,"d":{"mac":"2CCF679AF52F","lat":44.8316465,"lon":11.2243175,"sats":12,"qual":2,"speedKmh":3.7,"ts":"251105150039","receivedAt":1762354839489,"accel":{"x":1.387,"y":17.793,"z":-3.625},"gyro":{"x":-5.7012,"y":-1.5508,"z":-0.3516},"mag":{"x":10.56,"y":30.25,"z":-30.56},"quat":{"i":-0.0517,"j":0.5706,"k":-0.3525,"r":0.7399},"euler":{"roll":-54.34,"pitch":53.89,"yaw":-80.19}}}
{"t":1762354839548,"d":{"mac":"2CCF679AF52F","lat":44.8316457,"lon":11.2243177,"sats":11,"qual":2,"speedKmh":3.2,"ts":"251105150039","receivedAt":1762354839548,"accel":{"x":5.629,"y":17.977,"z":-8.238},"gyro":{"x":-6.8418,"y":0.9453,"z":0.4609},"mag":{"x":12.5,"y":34.5,"z":-21.81},"quat":{"i":-0.1908,"j":0.6218,"k":-0.2463,"r":0.7185},"euler":{"roll":-75.16,"pitch":53.09,"yaw":-79.9}}}
{"t":1762354839549,"d":{"mac":"2CCF67CB6518","lat":44.8317252,"lon":11.224381,"sats":11,"qual":2,"speedKmh":0.5,"ts":"251104150039","receivedAt":1762354839549,"accel":{"x":0.449,"y":-1.551,"z":0.23},"gyro":{"x":-0.5293,"y":-0.0312,"z":0.4824},"mag":{"x":-32.31,"y":32.38,"z":13.31},"quat":{"i":-0.3664,"j":-0.566,"k":-0.1312,"r":0.7267},"euler":{"roll":-76.71,"pitch":-66.75,"yaw":34.61}}}
{"t":1762354839605,"d":{"mac":"2CCF67CB6518","lat":44.8317253,"lon":11.2243805,"sats":10,"qual":2,"speedKmh":0.4,"ts":"251104150039","receivedAt":1762354839605,"accel":{"x":-2.148,"y":-3.152,"z":-0.391},"gyro":{"x":0.4199,"y":-0.0625,"z":-0.1992},"mag":{"x":-29.31,"y":31.25,"z":14.25},"quat":{"i":-0.365,"j":-0.569,"k":-0.1302,"r":0.7253},"euler":{"roll":-77.27,"pitch":-67,"yaw":35.39}}}
{"t":1762354839618,"d":{"mac":"2CCF679AF52F","lat":44.8316452,"lon":11.2243177,"sats":12,"qual":2,"speedKmh":2.8,"ts":"251105150039","receivedAt":1762354839617,"accel":{"x":-7.867,"y":-9.836,"z":2.332},"gyro":{"x":1.084,"y":0.3066,"z":-1.0742},"mag":{"x":14.12,"y":33.25,"z":-14.62},"quat":{"i":-0.2231,"j":0.6602,"k":-0.2138,"r":0.6846},"euler":{"roll":-87.19,"pitch":53.95,"yaw":-86.4}}}
{"t":1762354839686,"d":{"mac":"2CCF67CB6518","lat":44.8317253,"lon":11.2243805,"sats":11,"qual":2,"speedKmh":0.3,"ts":"251104150039","receivedAt":1762354839686,"accel":{"x":0.176,"y":0.777,"z":0.422},"gyro":{"x":-0.2402,"y":0.0488,"z":0.3418},"mag":{"x":-30.81,"y":32.75,"z":11.62},"quat":{"i":-0.3652,"j":-0.5698,"k":-0.1275,"r":0.7251},"euler":{"roll":-77.68,"pitch":-66.84,"yaw":36.01}}}
{"t":1762354839733,"d":{"mac":"2CCF679AF52F","lat":44.8316458,"lon":11.2243182,"sats":12,"qual":2,"speedKmh":1.6,"ts":"251105150039","receivedAt":1762354839733,"accel":{"x":2.004,"y":-0.484,"z":0.547},"gyro":{"x":0.3613,"y":0.1094,"z":-0.7168},"mag":{"x":12.94,"y":33.38,"z":-14},"quat":{"i":-0.2239,"j":0.6581,"k":-0.2371,"r":0.6786},"euler":{"roll":-86.88,"pitch":51.91,"yaw":-88.01}}}
{"t":1762354839744,"d":{"mac":"2CCF67CB6518","lat":44.8317253,"lon":11.2243807,"sats":11,"qual":2,"speedKmh":0.3,"ts":"251104150039","receivedAt":1762354839744,"accel":{"x":2.391,"y":0.582,"z":-0.574},"gyro":{"x":-0.002,"y":-0.0098,"z":-0.0059},"mag":{"x":-29.69,"y":32.38,"z":12.5},"quat":{"i":-0.3665,"j":-0.5704,"k":-0.1216,"r":0.7249},"euler":{"roll":-78.41,"pitch":-66.38,"yaw":37.11}}}
{"t":1762354839781,"d":{"mac":"2CCF679AF52F","lat":44.831646,"lon":11.2243187,"sats":11,"qual":2,"speedKmh":1.5,"ts":"251105150039","receivedAt":1762354839781,"accel":{"x":-3.043,"y":-2.281,"z":1.574},"gyro":{"x":0.9141,"y":-0.0684,"z":-1.127},"mag":{"x":11.81,"y":33.88,"z":-15.94},"quat":{"i":-0.2237,"j":0.6473,"k":-0.2681,"r":0.6775},"euler":{"roll":-84.57,"pitch":49.22,"yaw":-88.41}}}
{"t":1762354839799,"d":{"mac":"2CCF67CB6518","lat":44.8317252,"lon":11.2243808,"sats":11,"qual":2,"speedKmh":0.3,"ts":"251104150039","receivedAt":1762354839799,"accel":{"x":1.293,"y":0.609,"z":-0.266},"gyro":{"x":-0.0508,"y":0.1191,"z":-0.1602},"mag":{"x":-30.44,"y":34.25,"z":12.88},"quat":{"i":-0.3644,"j":-0.5712,"k":-0.1246,"r":0.7249},"euler":{"roll":-78.01,"pitch":-66.76,"yaw":36.67}}}
{"t":1762354839802,"d":{"mac":"2CCF679AF52F","lat":44.8316455,"lon":11.2243178,"sats":12,"qual":2,"speedKmh":1,"ts":"251105150039","receivedAt":1762354839801,"accel":{"x":4.891,"y":8.961,"z":-7.727},"gyro":{"x":1.4629,"y":0.4551,"z":0.0156},"mag":{"x":10,"y":35.56,"z":-19.19},"quat":{"i":-0.2264,"j":0.6364,"k":-0.2935,"r":0.6765},"euler":{"roll":-82.67,"pitch":46.74,"yaw":-88.52}}}
{"t":1762354839858,"d":{"mac":"2CCF67CB6518","lat":44.831725,"lon":11.224381,"sats":10,"qual":2,"speedKmh":0.7,"ts":"251104150039","receivedAt":1762354839858,"accel":{"x":0.227,"y":0.48,"z":0.301},"gyro":{"x":-0.3965,"y":-0.0195,"z":-0.2852},"mag":{"x":-30.06,"y":33.12,"z":13.75},"quat":{"i":-0.3663,"j":-0.5706,"k":-0.1312,"r":0.7231},"euler":{"roll":-78.06,"pitch":-67.13,"yaw":35.99}}}
{"t":1762354839885,"d":{"mac":"2CCF679AF52F","lat":44.8316452,"lon":11.2243172,"sats":12,"qual":2,"speedKmh":1.1,"ts":"251105150039","receivedAt":1762354839885,"accel":{"x":-2.191,"y":-1.609,"z":3.715},"gyro":{"x":-1.0781,"y":0.709,"z":0.4805},"mag":{"x":11.31,"y":34.75,"z":-18.94},"quat":{"i":-0.1858,"j":0.6389,"k":-0.2973,"r":0.6848},"euler":{"roll":-79.75,"pitch":49.86,"yaw":-89.38}}}
{"t":1762354839946,"d":{"mac":"2CCF67CB6518","lat":44.831725,"lon":11.2243813,"sats":11,"qual":2,"speedKmh":0.8,"ts":"251104150039","receivedAt":1762354839946,"accel":{"x":-0.887,"y":-0.125,"z":-0.074},"gyro":{"x":-0.416,"y":0.1328,"z":-0.2812},"mag":{"x":-31.19,"y":30.12,"z":14.69},"quat":{"i":-0.3723,"j":-0.5698,"k":-0.1555,"r":0.716},"euler":{"roll":-78.32,"pitch":-68.69,"yaw":33.69}}}
{"t":1762354839947,"d":{"mac":"2CCF679AF52F","lat":44.8316455,"lon":11.2243173,"sats":12,"qual":5,"speedKmh":0.4,"ts":"251105150039","receivedAt":1762354839946,"accel":{"x":0.125,"y":-1.379,"z":0.121},"gyro":{"x":-1.4062,"y":0.043,"z":0.1406},"mag":{"x":12.19,"y":34.06,"z":-16.44},"quat":{"i":-0.2055,"j":0.6618,"k":-0.2659,"r":0.6701},"euler":{"roll":-86.39,"pitch":51.05,"yaw":-91.59}}}
{"t":1762354840008,"d":{"mac":"2CCF679AF52F","lat":44.8316455,"lon":11.2243177,"sats":12,"qual":5,"speedKmh":0.5,"ts":"251105150039","receivedAt":1762354840008,"accel":{"x":-1.219,"y":-6.957,"z":1.258},"gyro":{"x":0.7109,"y":-0.4082,"z":-0.3691},"mag":{"x":12.44,"y":34,"z":-14.88},"quat":{"i":-0.209,"j":0.6579,"k":-0.2653,"r":0.6732},"euler":{"roll":-85.74,"pitch":50.79,"yaw":-90.58}}}
{"t":1762354840028,"d":{"mac":"2CCF67CB6518","lat":44.831725,"lon":11.2243812,"sats":11,"qual":2,"speedKmh":0.7,"ts":"251104150039","receivedAt":1762354840028,"accel":{"x":-0.328,"y":0.035,"z":-0.145},"gyro":{"x":-0.3223,"y":0.2402,"z":-0.1289},"mag":{"x":-32.69,"y":29,"z":13.38},"quat":{"i":-0.3762,"j":-0.567,"k":-0.1682,"r":0.7133},"euler":{"roll":-77.93,"pitch":-69.29,"yaw":31.86}}}
{"t":1762354840091,"d":{"mac":"2CCF67CB6518","lat":44.831725,"lon":11.2243812,"sats":10,"qual":2,"speedKmh":0.7,"ts":"251104150039","receivedAt":1762354840090,"accel":{"x":0.301,"y":-1.27,"z":-0.297},"gyro":{"x":0.1074,"y":0.5605,"z":-0.0938},"mag":{"x":-31.19,"y":29.38,"z":13.81},"quat":{"i":-0.3722,"j":-0.5626,"k":-0.1737,"r":0.7174},"euler":{"roll":-75.14,"pitch":-69.48,"yaw":28.95}}}
{"t":1762354840093,"d":{"mac":"2CCF679AF52F","lat":44.8316452,"lon":11.2243178,"sats":12,"qual":5,"speedKmh":1.1,"ts":"251105150039","receivedAt":1762354840092,"accel":{"x":-4.844,"y":-7.523,"z":0.148},"gyro":{"x":4.9414,"y":-2.0664,"z":-0.25},"mag":{"x":7.94,"y":34.5,"z":-20.19},"quat":{"i":-0.194,"j":0.5844,"k":-0.3306,"r":0.7152},"euler":{"roll":-70,"pitch":45.04,"yaw":-82}}}
{"t":1762354840156,"d":{"mac":"2CCF679AF52F","lat":44.8316447,"lon":11.2243175,"sats":12,"qual":5,"speedKmh":0.8,"ts":"251105150040","receivedAt":1762354840156,"accel":{"x":2.91,"y":10.684,"z":-11.645},"gyro":{"x":-0.4062,"y":0.1113,"z":-0.7207},"mag":{"x":4.75,"y":33.62,"z":-25.94},"quat":{"i":-0.1484,"j":0.5366,"k":-0.3769,"r":0.7403},"euler":{"roll":-58.66,"pitch":43.05,"yaw":-78.96}}}
{"t":1762354840160,"d":{"mac":"2CCF67CB6518","lat":44.831725,"lon":11.2243812,"sats":10,"qual":2,"speedKmh":0.7,"ts":"251104150040","receivedAt":1762354840160,"accel":{"x":1.598,"y":-3.496,"z":-1.031},"gyro":{"x":1.3008,"y":-0.2793,"z":-0.3809},"mag":{"x":-32.69,"y":30.5,"z":13.81},"quat":{"i":-0.3719,"j":-0.5523,"k":-0.1736,"r":0.7256},"euler":{"roll":-71.98,"pitch":-68.53,"yaw":25.74}}}
{"t":1762354840205,"d":{"mac":"2CCF67CB6518","lat":44.8317248,"lon":11.2243813,"sats":10,"qual":2,"speedKmh":0.8,"ts":"251104150040","receivedAt":1762354840205,"accel":{"x":-0.406,"y":2.469,"z":2.293},"gyro":{"x":-0.1445,"y":0.0801,"z":-0.0938},"mag":{"x":-32.31,"y":28.69,"z":11.25},"quat":{"i":-0.3499,"j":-0.5629,"k":-0.1658,"r":0.7302},"euler":{"roll":-69.47,"pitch":-69.73,"yaw":25.99}}}
{"t":1762354840225,"d":{"mac":"2CCF679AF52F","lat":44.8316448,"lon":11.2243172,"sats":12,"qual":5,"speedKmh":0.1,"ts":"251105150040","receivedAt":1762354840225,"accel":{"x":-2.633,"y":-3.578,"z":3.285},"gyro":{"x":1.377,"y":0.0938,"z":-0.9785},"mag":{"x":4.81,"y":33.19,"z":-23.06},"quat":{"i":-0.1684,"j":0.5632,"k":-0.4003,"r":0.703},"euler":{"roll":-65.82,"pitch":41.08,"yaw":-86.58}}}
{"t":1762354840297,"d":{"mac":"2CCF679AF52F","lat":44.8316445,"lon":11.2243168,"sats":12,"qual":5,"speedKmh":0.3,"ts":"251105150040","receivedAt":1762354840297,"accel":{"x":-3.617,"y":0.652,"z":3.602},"gyro":{"x":0.4102,"y":-0.3555,"z":-0.2871},"mag":{"x":3.19,"y":33.12,"z":-24.69},"quat":{"i":-0.1606,"j":0.5452,"k":-0.4247,"r":0.7047},"euler":{"roll":-62.82,"pitch":39.2,"yaw":-86.68}}}
{"t":1762354840330,"d":{"mac":"2CCF67CB6518","lat":44.8317248,"lon":11.2243817,"sats":10,"qual":2,"speedKmh":0.9,"ts":"251104150040","receivedAt":1762354840329,"accel":{"x":-0.035,"y":0.141,"z":1.402},"gyro":{"x":-0.6621,"y":0.0879,"z":0.0449},"mag":{"x":-31.56,"y":29.75,"z":12.12},"quat":{"i":-0.3661,"j":-0.5554,"k":-0.1743,"r":0.7261},"euler":{"roll":-71.2,"pitch":-69.08,"yaw":25.47}}}
{"t":1762354840338,"d":{"mac":"2CCF679AF52F","lat":44.8316443,"lon":11.2243167,"sats":12,"qual":5,"speedKmh":0.4,"ts":"251105150040","receivedAt":1762354840338,"accel":{"x":1.223,"y":4.77,"z":0.312},"gyro":{"x":-1.0957,"y":-0.0938,"z":0.4727},"mag":{"x":2.44,"y":32.38,"z":-23.38},"quat":{"i":-0.171,"j":0.5483,"k":-0.4152,"r":0.7055},"euler":{"roll":-63.97,"pitch":39.18,"yaw":-86.01}}}
{"t":1762354840347,"d":{"mac":"2CCF67CB6518","lat":44.831725,"lon":11.2243813,"sats":10,"qual":2,"speedKmh":0.7,"ts":"251104150040","receivedAt":1762354840347,"accel":{"x":1.426,"y":0.531,"z":-1.645},"gyro":{"x":0.2402,"y":-0.3379,"z":-0.2832},"mag":{"x":-31.94,"y":30.5,"z":14.25},"quat":{"i":-0.3501,"j":-0.5704,"k":-0.1608,"r":0.7254},"euler":{"roll":-72.19,"pitch":-70.07,"yaw":29.16}}}
{"t":1762354840416,"d":{"mac":"2CCF679AF52F","lat":44.8316453,"lon":11.2243178,"sats":12,"qual":5,"speedKmh":0.4,"ts":"251105150040","receivedAt":1762354840416,"accel":{"x":0.812,"y":0.602,"z":-1.242},"gyro":{"x":-0.0371,"y":0.125,"z":0.5273},"mag":{"x":3.31,"y":31.62,"z":-23.44},"quat":{"i":-0.1765,"j":0.5567,"k":-0.3986,"r":0.7072},"euler":{"roll":-65.37,"pitch":40.3,"yaw":-85.3}}}
{"t":1762354840427,"d":{"mac":"2CCF67CB6518","lat":44.8317248,"lon":11.2243812,"sats":10,"qual":2,"speedKmh":0.2,"ts":"251104150040","receivedAt":1762354840427,"accel":{"x":2.504,"y":2.875,"z":1.047},"gyro":{"x":-0.4844,"y":-0.1465,"z":-0.3789},"mag":{"x":-31.94,"y":29,"z":12.12},"quat":{"i":-0.3524,"j":-0.5751,"k":-0.1605,"r":0.7206},"euler":{"roll":-74.42,"pitch":-70.38,"yaw":31.23}}}
{"t":1762354840486,"d":{"mac":"2CCF679AF52F","lat":44.8316458,"lon":11.2243185,"sats":12,"qual":5,"speedKmh":0.6,"ts":"251105150040","receivedAt":1762354840486,"accel":{"x":-1.129,"y":0.277,"z":-1.699},"gyro":{"x":-1.4746,"y":0.3125,"z":0.877},"mag":{"x":7.88,"y":33.69,"z":-22.88},"quat":{"i":-0.1644,"j":0.5933,"k":-0.3433,"r":0.7093},"euler":{"roll":-69.3,"pitch":46.78,"yaw":-84.94}}}
{"t":1762354840486,"d":{"mac":"2CCF67CB6518","lat":44.831725,"lon":11.2243812,"sats":10,"qual":2,"speedKmh":0.6,"ts":"251104150040","receivedAt":1762354840486,"accel":{"x":-0.859,"y":-2.23,"z":-0.527},"gyro":{"x":-0.8086,"y":0.1328,"z":0.2363},"mag":{"x":-32.31,"y":30.5,"z":14.25},"quat":{"i":-0.3596,"j":-0.5762,"k":-0.1689,"r":0.7143},"euler":{"roll":-76.37,"pitch":-70.85,"yaw":31.83}}}
{"t":1762354840538,"d":{"mac":"2CCF679AF52F","lat":44.8316463,"lon":11.2243188,"sats":12,"qual":5,"speedKmh":0.3,"ts":"251105150040","receivedAt":1762354840538,"accel":{"x":1.891,"y":-1.328,"z":0.074},"gyro":{"x":-0.8203,"y":0.9141,"z":1.1953},"mag":{"x":10.38,"y":34.25,"z":-21.44},"quat":{"i":-0.1621,"j":0.6161,"k":-0.3135,"r":0.7042},"euler":{"roll":-72.98,"pitch":50.01,"yaw":-86.06}}}
{"t":1762354840557,"d":{"mac":"2CCF67CB6518","lat":44.8317248,"lon":11.2243808,"sats":11,"qual":2,"speedKmh":0.4,"ts":"251104150040","receivedAt":1762354840556,"accel":{"x":-3.09,"y":1.168,"z":-0.234},"gyro":{"x":-0.1543,"y":0.1484,"z":0.1855},"mag":{"x":-32.69,"y":29.75,"z":12.94},"quat":{"i":-0.355,"j":-0.5804,"k":-0.1679,"r":0.7133},"euler":{"roll":-76.63,"pitch":-71.32,"yaw":32.61}}}
{"t":1762354840609,"d":{"mac":"2CCF679AF52F","lat":44.8316467,"lon":11.224319,"sats":12,"qual":5,"speedKmh":0.6,"ts":"251105150040","receivedAt":1762354840609,"accel":{"x":-0.723,"y":-0.809,"z":-1.035},"gyro":{"x":-0.7617,"y":0.7871,"z":1.2539},"mag":{"x":12.12,"y":34.25,"z":-21.06},"quat":{"i":-0.1469,"j":0.6456,"k":-0.2792,"r":0.6954},"euler":{"roll":-77.69,"pitch":54.69,"yaw":-88.96}}}
{"t":1762354840629,"d":{"mac":"2CCF67CB6518","lat":44.8317248,"lon":11.2243807,"sats":11,"qual":2,"speedKmh":0.3,"ts":"251104150040","receivedAt":1762354840629,"accel":{"x":-0.805,"y":0.82,"z":0.805},"gyro":{"x":-0.5352,"y":-0.0254,"z":0.0215},"mag":{"x":-33.06,"y":27.12,"z":14.31},"quat":{"i":-0.3619,"j":-0.5773,"k":-0.1714,"r":0.7116},"euler":{"roll":-77.29,"pitch":-71.03,"yaw":32.33}}}
{"t":1762354840676,"d":{"mac":"2CCF67CB6518","lat":44.8317247,"lon":11.2243808,"sats":11,"qual":2,"speedKmh":0.4,"ts":"251104150040","receivedAt":1762354840676,"accel":{"x":0.734,"y":-0.27,"z":-0.289},"gyro":{"x":0.3496,"y":0.0625,"z":-0.1875},"mag":{"x":-32.69,"y":29.38,"z":15.56},"quat":{"i":-0.3663,"j":-0.5756,"k":-0.1748,"r":0.7099},"euler":{"roll":-77.79,"pitch":-70.97,"yaw":32.13}}}
{"t":1762354840712,"d":{"mac":"2CCF679AF52F","lat":44.831647,"lon":11.2243193,"sats":12,"qual":5,"speedKmh":0.9,"ts":"251105150040","receivedAt":1762354840712,"accel":{"x":0.652,"y":-0.246,"z":-0.605},"gyro":{"x":-1.0273,"y":1.1914,"z":1.1074},"mag":{"x":17.81,"y":31.25,"z":-17.75},"quat":{"i":-0.1157,"j":0.6968,"k":-0.2164,"r":0.6739},"euler":{"roll":-89.74,"pitch":62.76,"yaw":-98.15}}}
{"t":1762354840768,"d":{"mac":"2CCF67CB6518","lat":44.8317247,"lon":11.2243807,"sats":11,"qual":2,"speedKmh":0.2,"ts":"251104150040","receivedAt":1762354840768,"accel":{"x":0.012,"y":1.066,"z":0.41},"gyro":{"x":-0.7637,"y":0.168,"z":-0.0195},"mag":{"x":-33.06,"y":28.62,"z":13.38},"quat":{"i":-0.3619,"j":-0.5779,"k":-0.1832,"r":0.7081},"euler":{"roll":-76.91,"pitch":-72.01,"yaw":30.97}}}
{"t":1762354840773,"d":{"mac":"2CCF679AF52F","lat":44.8316472,"lon":11.2243192,"sats":12,"qual":5,"speedKmh":0.6,"ts":"251105150040","receivedAt":1762354840773,"accel":{"x":-2.43,"y":-1.199,"z":-0.523},"gyro":{"x":-0.7324,"y":1.166,"z":1.2812},"mag":{"x":19.88,"y":30.88,"z":-16.25},"quat":{"i":-0.1022,"j":0.7244,"k":-0.1832,"r":0.6566},"euler":{"roll":-100,"pitch":66.05,"yaw":-106.71}}}
{"t":1762354840804,"d":{"mac":"2CCF67CB6518","lat":44.8317247,"lon":11.224381,"sats":11,"qual":2,"speedKmh":0.5,"ts":"251104150040","receivedAt":1762354840804,"accel":{"x":-0.215,"y":0.324,"z":0.348},"gyro":{"x":-0.5156,"y":0.0977,"z":0.0762},"mag":{"x":-33.44,"y":27.5,"z":15.56},"quat":{"i":-0.3752,"j":-0.5722,"k":-0.1948,"r":0.7027},"euler":{"roll":-78.21,"pitch":-71.87,"yaw":30.04}}}
{"t":1762354840811,"d":{"mac":"2CCF679AF52F","lat":44.8316472,"lon":11.2243188,"sats":12,"qual":5,"speedKmh":0.9,"ts":"251105150040","receivedAt":1762354840811,"accel":{"x":-0.758,"y":-1.016,"z":-0.375},"gyro":{"x":-0.7227,"y":0.6738,"z":0.5527},"mag":{"x":21.75,"y":27.5,"z":-13.94},"quat":{"i":-0.0924,"j":0.7452,"k":-0.1547,"r":0.642},"euler":{"roll":-110.08,"pitch":68.16,"yaw":-115.22}}}
{"t":1762354840875,"d":{"mac":"2CCF67CB6518","lat":44.8317245,"lon":11.2243808,"sats":11,"qual":2,"speedKmh":0.4,"ts":"251104150040","receivedAt":1762354840874,"accel":{"x":-0.57,"y":-0.512,"z":-0.234},"gyro":{"x":-0.041,"y":-0.0625,"z":-0.2715},"mag":{"x":-33.06,"y":27.12,"z":16.44},"quat":{"i":-0.3766,"j":-0.5728,"k":-0.1995,"r":0.7001},"euler":{"roll":-78.62,"pitch":-72.25,"yaw":29.92}}}
{"t":1762354840876,"d":{"mac":"2CCF679AF52F","lat":44.8316473,"lon":11.2243187,"sats":12,"qual":5,"speedKmh":1,"ts":"251105150040","receivedAt":1762354840876,"accel":{"x":-2.48,"y":-3.75,"z":2.395},"gyro":{"x":-0.3945,"y":0.543,"z":0.8828},"mag":{"x":22.81,"y":28.62,"z":-13.56},"quat":{"i":-0.0862,"j":0.7563,"k":-0.1367,"r":0.6339},"euler":{"roll":-116.7,"pitch":69.27,"yaw":-120.86}}}
{"t":1762354840946,"d":{"mac":"2CCF679AF52F","lat":44.8316473,"lon":11.224319,"sats":12,"qual":5,"speedKmh":0.5,"ts":"251105150040","receivedAt":1762354840946,"accel":{"x":0.891,"y":-0.738,"z":-0.363},"gyro":{"x":0.0137,"y":0.7383,"z":0.709},"mag":{"x":24.69,"y":28.06,"z":-12.5},"quat":{"i":-0.0588,"j":0.7861,"k":-0.1102,"r":0.6053},"euler":{"roll":-134.79,"pitch":69.84,"yaw":-139.02}}}
{"t":1762354840955,"d":{"mac":"2CCF67CB6518","lat":44.8317243,"lon":11.2243807,"sats":11,"qual":2,"speedKmh":0.4,"ts":"251104150040","receivedAt":1762354840954,"accel":{"x":0.012,"y":0.367,"z":0.234},"gyro":{"x":-0.2988,"y":0.0508,"z":-0.0371},"mag":{"x":-34.5,"y":27.81,"z":16},"quat":{"i":-0.376,"j":-0.5737,"k":-0.2056,"r":0.6981},"euler":{"roll":-78.45,"pitch":-72.84,"yaw":29.3}}}
{"t":1762354841016,"d":{"mac":"2CCF67CB6518","lat":44.8317242,"lon":11.2243807,"sats":11,"qual":2,"speedKmh":0.5,"ts":"251104150040","receivedAt":1762354841015,"accel":{"x":0.043,"y":0.469,"z":0.242},"gyro":{"x":-0.0566,"y":0.0117,"z":-0.0176},"mag":{"x":-34.19,"y":26.75,"z":14.31},"quat":{"i":-0.3781,"j":-0.5724,"k":-0.2086,"r":0.697},"euler":{"roll":-78.48,"pitch":-72.89,"yaw":28.87}}}
{"t":1762354841042,"d":{"mac":"2CCF679AF52F","lat":44.8316475,"lon":11.224319,"sats":12,"qual":5,"speedKmh":0.4,"ts":"251105150040","receivedAt":1762354841042,"accel":{"x":-2.234,"y":-2.305,"z":0.82},"gyro":{"x":0.4297,"y":0.2871,"z":0.5332},"mag":{"x":28.12,"y":24.38,"z":-11.62},"quat":{"i":-0.0416,"j":0.7935,"k":-0.1019,"r":0.5986},"euler":{"roll":-141.15,"pitch":70.29,"yaw":-146.11}}}
{"t":1762354841064,"d":{"mac":"2CCF679AF52F","lat":44.8316477,"lon":11.2243188,"sats":12,"qual":5,"speedKmh":0.5,"ts":"251105150040","receivedAt":1762354841064,"accel":{"x":-1.633,"y":-1.934,"z":1.531},"gyro":{"x":-0.2598,"y":-0.0781,"z":0.2051},"mag":{"x":27.75,"y":26.44,"z":-12},"quat":{"i":-0.0138,"j":0.804,"k":-0.1113,"r":0.5839},"euler":{"roll":-146.36,"pitch":69.37,"yaw":-154.4}}}
{"t":1762354841095,"d":{"mac":"2CCF67CB6518","lat":44.8317242,"lon":11.2243805,"sats":11,"qual":2,"speedKmh":0.4,"ts":"251104150040","receivedAt":1762354841094,"accel":{"x":-0.234,"y":0.238,"z":0.379},"gyro":{"x":-0.0762,"y":0.1094,"z":0.0293},"mag":{"x":-34.5,"y":27.44,"z":17.38},"quat":{"i":-0.3823,"j":-0.5704,"k":-0.2152,"r":0.6943},"euler":{"roll":-78.73,"pitch":-73.08,"yaw":28.16}}}
{"t":1762354841140,"d":{"mac":"2CCF679AF52F","lat":44.8316475,"lon":11.2243188,"sats":12,"qual":5,"speedKmh":0.3,"ts":"251105150041","receivedAt":1762354841140,"accel":{"x":0.957,"y":-2.246,"z":-0.207},"gyro":{"x":0.0176,"y":0.2305,"z":-0.3027},"mag":{"x":26.81,"y":25.62,"z":-11.94},"quat":{"i":-0.0178,"j":0.8038,"k":-0.1069,"r":0.5848},"euler":{"roll":-146.68,"pitch":69.46,"yaw":-154.02}}}
{"t":1762354841152,"d":{"mac":"2CCF67CB6518","lat":44.831724,"lon":11.2243807,"sats":11,"qual":2,"speedKmh":0.5,"ts":"251104150041","receivedAt":1762354841152,"accel":{"x":-1.105,"y":1.074,"z":0.816},"gyro":{"x":-0.3984,"y":0.1582,"z":0.1094},"mag":{"x":-35.62,"y":26,"z":15.19},"quat":{"i":-0.3862,"j":-0.5671,"k":-0.2177,"r":0.6942},"euler":{"roll":-78.57,"pitch":-72.83,"yaw":27.39}}}
{"t":1762354841214,"d":{"mac":"2CCF679AF52F","lat":44.8316475,"lon":11.224319,"sats":12,"qual":5,"speedKmh":0.1,"ts":"251105150041","receivedAt":1762354841214,"accel":{"x":-0.605,"y":-2.281,"z":0.039},"gyro":{"x":-0.0078,"y":-0.7793,"z":-0.3613},"mag":{"x":27.25,"y":26.06,"z":-11.94},"quat":{"i":-0.0234,"j":0.8006,"k":-0.1158,"r":0.5875},"euler":{"roll":-143.05,"pitch":69.27,"yaw":-150.67}}}
{"t":1762354841227,"d":{"mac":"2CCF67CB6518","lat":44.831724,"lon":11.2243808,"sats":11,"qual":2,"speedKmh":0.6,"ts":"251104150041","receivedAt":1762354841227,"accel":{"x":-0.387,"y":-1.387,"z":-1.676},"gyro":{"x":0.3125,"y":0.0938,"z":0.0195},"mag":{"x":-33.81,"y":27.44,"z":16.44},"quat":{"i":-0.3901,"j":-0.5624,"k":-0.2184,"r":0.6956},"euler":{"roll":-78.02,"pitch":-72.33,"yaw":26.39}}}
{"t":1762354841311,"d":{"mac":"2CCF67CB6518","lat":44.831724,"lon":11.2243812,"sats":11,"qual":2,"speedKmh":0.6,"ts":"251104150041","receivedAt":1762354841311,"accel":{"x":-0.977,"y":-0.16,"z":-1},"gyro":{"x":0.1172,"y":0.123,"z":0.0625},"mag":{"x":-34.88,"y":27.88,"z":15.12},"quat":{"i":-0.3817,"j":-0.564,"k":-0.2148,"r":0.7001},"euler":{"roll":-76.05,"pitch":-72.48,"yaw":25.52}}}
{"t":1762354841337,"d":{"mac":"2CCF67CB6518","lat":44.8317238,"lon":11.2243813,"sats":11,"qual":2,"speedKmh":0.8,"ts":"251104150041","receivedAt":1762354841337,"accel":{"x":1.223,"y":-0.68,"z":0.719},"gyro":{"x":0.2363,"y":0.3711,"z":-0.0273},"mag":{"x":-34.5,"y":28.62,"z":13.38},"quat":{"i":-0.3813,"j":-0.5523,"k":-0.2167,"r":0.709},"euler":{"roll":-71.78,"pitch":-71.51,"yaw":21.05}}}
{"t":1762354841355,"d":{"mac":"2CCF679AF52F","lat":44.8316473,"lon":11.2243192,"sats":12,"qual":5,"speedKmh":0.6,"ts":"251105150041","receivedAt":1762354841355,"accel":{"x":-3.531,"y":-4.293,"z":2.773},"gyro":{"x":-0.3652,"y":-0.8008,"z":-0.7129},"mag":{"x":26.5,"y":25,"z":-11.31},"quat":{"i":-0.0414,"j":0.7877,"k":-0.1166,"r":0.6035},"euler":{"roll":-136.28,"pitch":70.24,"yaw":-142.46}}}
{"t":1762354841378,"d":{"mac":"2CCF679AF52F","lat":44.831647,"lon":11.2243195,"sats":12,"qual":5,"speedKmh":1.3,"ts":"251105150041","receivedAt":1762354841378,"accel":{"x":-0.312,"y":0.93,"z":-0.949},"gyro":{"x":0.9844,"y":-0.8379,"z":-0.5391},"mag":{"x":24.25,"y":27.06,"z":-14.62},"quat":{"i":-0.0534,"j":0.7642,"k":-0.1549,"r":0.6239},"euler":{"roll":-119.78,"pitch":69.55,"yaw":-128.14}}}
{"t":1762354841405,"d":{"mac":"2CCF679AF52F","lat":44.8316467,"lon":11.2243193,"sats":12,"qual":5,"speedKmh":1.1,"ts":"251105150041","receivedAt":1762354841405,"accel":{"x":0.582,"y":1.656,"z":-2.305},"gyro":{"x":1.082,"y":-0.291,"z":-0.2285},"mag":{"x":21.81,"y":29.12,"z":-16.75},"quat":{"i":-0.0509,"j":0.748,"k":-0.18,"r":0.6368},"euler":{"roll":-110.38,"pitch":69.13,"yaw":-121.04}}}
{"t":1762354841425,"d":{"mac":"2CCF67CB6518","lat":44.8317238,"lon":11.2243817,"sats":11,"qual":2,"speedKmh":0.9,"ts":"251104150041","receivedAt":1762354841424,"accel":{"x":0.512,"y":1.184,"z":-0.414},"gyro":{"x":-0.3223,"y":0.3066,"z":0.125},"mag":{"x":-35.25,"y":27.12,"z":11.69},"quat":{"i":-0.3791,"j":-0.547,"k":-0.2191,"r":0.7135},"euler":{"roll":-69.25,"pitch":-71.2,"yaw":18.48}}}
{"t":1762354841475,"d":{"mac":"2CCF679AF52F","lat":44.8316465,"lon":11.2243193,"sats":12,"qual":5,"speedKmh":0.8,"ts":"251105150041","receivedAt":1762354841475,"accel":{"x":0.199,"y":-1.449,"z":-0.348},"gyro":{"x":-1.4473,"y":0.3379,"z":-0.3535},"mag":{"x":21.12,"y":30.25,"z":-16.5},"quat":{"i":-0.0789,"j":0.7421,"k":-0.1726,"r":0.6429},"euler":{"roll":-107.65,"pitch":67.97,"yaw":-115.39}}}
{"t":1762354841487,"d":{"mac":"2CCF67CB6518","lat":44.8317237,"lon":11.2243815,"sats":11,"qual":2,"speedKmh":0.9,"ts":"251104150041","receivedAt":1762354841487,"accel":{"x":-0.254,"y":0.316,"z":-0.344},"gyro":{"x":-0.291,"y":0.1641,"z":0.1484},"mag":{"x":-35.25,"y":27.88,"z":14.75},"quat":{"i":-0.3874,"j":-0.5381,"k":-0.2236,"r":0.7144},"euler":{"roll":-68.89,"pitch":-70.4,"yaw":16.89}}}
{"t":1762354841546,"d":{"mac":"2CCF67CB6518","lat":44.8317237,"lon":11.2243813,"sats":11,"qual":2,"speedKmh":0.7,"ts":"251104150041","receivedAt":1762354841545,"accel":{"x":-0.629,"y":1,"z":0.473},"gyro":{"x":-0.1367,"y":0.1016,"z":0.1211},"mag":{"x":-34.88,"y":27.88,"z":13.38},"quat":{"i":-0.387,"j":-0.5316,"k":-0.2233,"r":0.7196},"euler":{"roll":-67.05,"pitch":-69.7,"yaw":15.05}}}
{"t":1762354841573,"d":{"mac":"2CCF679AF52F","lat":44.8316465,"lon":11.2243193,"sats":12,"qual":5,"speedKmh":0.3,"ts":"251105150041","receivedAt":1762354841573,"accel":{"x":-0.66,"y":-0.465,"z":-2.227},"gyro":{"x":0.291,"y":0.3887,"z":0.0195},"mag":{"x":22.62,"y":29.38,"z":-14.69},"quat":{"i":-0.0875,"j":0.7516,"k":-0.1641,"r":0.6329},"euler":{"roll":-112.09,"pitch":67.32,"yaw":-118.43}}}
{"t":1762354841595,"d":{"mac":"2CCF679AF52F","lat":44.8316465,"lon":11.2243193,"sats":12,"qual":5,"speedKmh":0.3,"ts":"251105150041","receivedAt":1762354841595,"accel":{"x":-1.355,"y":-2.855,"z":-0.129},"gyro":{"x":1.4492,"y":-0.1367,"z":-0.3555},"mag":{"x":22.12,"y":28.06,"z":-14.56},"quat":{"i":-0.0768,"j":0.7493,"k":-0.1868,"r":0.6307},"euler":{"roll":-109.68,"pitch":66.42,"yaw":-118.8}}}
{"t":1762354841615,"d":{"mac":"2CCF67CB6518","lat":44.8317237,"lon":11.2243812,"sats":11,"qual":2,"speedKmh":0.5,"ts":"251104150041","receivedAt":1762354841615,"accel":{"x":-0.48,"y":1.051,"z":-0.242},"gyro":{"x":-0.1953,"y":0.1797,"z":0.166},"mag":{"x":-34.5,"y":28.62,"z":14.25},"quat":{"i":-0.394,"j":-0.5255,"k":-0.2269,"r":0.7191},"euler":{"roll":-67.31,"pitch":-69.16,"yaw":14.29}}}
{"t":1762354841660,"d":{"mac":"2CCF679AF52F","lat":44.8316465,"lon":11.2243195,"sats":12,"qual":5,"speedKmh":0.4,"ts":"251105150041","receivedAt":1762354841659,"accel":{"x":-1.027,"y":-0.289,"z":1.879},"gyro":{"x":0.9512,"y":-0.5566,"z":-0.6523},"mag":{"x":19.75,"y":29.69,"z":-16.25},"quat":{"i":-0.0655,"j":0.7349,"k":-0.2186,"r":0.6387},"euler":{"roll":-102.35,"pitch":65.51,"yaw":-115.07}}}
{"t":1762354841698,"d":{"mac":"2CCF67CB6518","lat":44.8317235,"lon":11.2243812,"sats":11,"qual":2,"speedKmh":0.5,"ts":"251104150041","receivedAt":1762354841698,"accel":{"x":-0.113,"y":0.48,"z":-0.191},"gyro":{"x":0.043,"y":0.0215,"z":0.2285},"mag":{"x":-33.44,"y":28.25,"z":13.81},"quat":{"i":-0.385,"j":-0.5256,"k":-0.2184,"r":0.7265},"euler":{"roll":-65.41,"pitch":-68.73,"yaw":13.95}}}
{"t":1762354841729,"d":{"mac":"2CCF679AF52F","lat":44.8316462,"lon":11.2243192,"sats":12,"qual":5,"speedKmh":0.5,"ts":"251105150041","receivedAt":1762354841729,"accel":{"x":-1.609,"y":-0.117,"z":1.328},"gyro":{"x":-0.1895,"y":-0.8145,"z":-0.8281},"mag":{"x":17.25,"y":30.06,"z":-18.12},"quat":{"i":-0.088,"j":0.7047,"k":-0.252,"r":0.6573},"euler":{"roll":-91.06,"pitch":61.9,"yaw":-104.8}}}
{"t":1762354841745,"d":{"mac":"2CCF67CB6518","lat":44.8317235,"lon":11.2243812,"sats":11,"qual":2,"speedKmh":0.6,"ts":"251104150041","receivedAt":1762354841745,"accel":{"x":-0.234,"y":-0.242,"z":0.461},"gyro":{"x":0.0938,"y":0.1699,"z":0.1504},"mag":{"x":-33.44,"y":28.25,"z":12.94},"quat":{"i":-0.3849,"j":-0.5233,"k":-0.2151,"r":0.7292},"euler":{"roll":-65.13,"pitch":-68.25,"yaw":13.93}}}
{"t":1762354841807,"d":{"mac":"2CCF679AF52F","lat":44.831646,"lon":11.224319,"sats":12,"qual":5,"speedKmh":0.4,"ts":"251105150041","receivedAt":1762354841807,"accel":{"x":-4.57,"y":-9.309,"z":6.152},"gyro":{"x":0.5078,"y":-1.959,"z":-1.8633},"mag":{"x":14.5,"y":32,"z":-19.69},"quat":{"i":-0.1205,"j":0.6783,"k":-0.2723,"r":0.6716},"euler":{"roll":-84.56,"pitch":57.73,"yaw":-97.39}}}
{"t":1762354841823,"d":{"mac":"2CCF67CB6518","lat":44.8317235,"lon":11.2243818,"sats":11,"qual":2,"speedKmh":0.7,"ts":"251104150041","receivedAt":1762354841823,"accel":{"x":0.227,"y":-0.91,"z":-0.133},"gyro":{"x":0.3711,"y":0.1074,"z":-0.0723},"mag":{"x":-33.81,"y":27.56,"z":11.69},"quat":{"i":-0.3823,"j":-0.5206,"k":-0.2115,"r":0.7335},"euler":{"roll":-64.07,"pitch":-67.73,"yaw":13.4}}}
{"t":1762354841858,"d":{"mac":"2CCF679AF52F","lat":44.8316455,"lon":11.2243187,"sats":12,"qual":5,"speedKmh":0.8,"ts":"251105150041","receivedAt":1762354841858,"accel":{"x":-10.195,"y":-9.629,"z":5.078},"gyro":{"x":2.5957,"y":-3.2383,"z":-1.332},"mag":{"x":12.88,"y":32.44,"z":-21.44},"quat":{"i":-0.132,"j":0.6177,"k":-0.3168,"r":0.7076},"euler":{"roll":-70.73,"pitch":52.23,"yaw":-86.61}}}
{"t":1762354841889,"d":{"mac":"2CCF67CB6518","lat":44.8317233,"lon":11.2243813,"sats":11,"qual":2,"speedKmh":0.4,"ts":"251104150041","receivedAt":1762354841888,"accel":{"x":-0.379,"y":-1.594,"z":1.098},"gyro":{"x":-0.248,"y":0.5273,"z":0.6602},"mag":{"x":-35.25,"y":30.88,"z":11.62},"quat":{"i":-0.3823,"j":-0.508,"k":-0.2069,"r":0.7437},"euler":{"roll":-61.86,"pitch":-66.03,"yaw":11.45}}}
{"t":1762354841928,"d":{"mac":"2CCF679AF52F","lat":44.831645,"lon":11.2243185,"sats":11,"qual":5,"speedKmh":1,"ts":"251105150041","receivedAt":1762354841928,"accel":{"x":6.672,"y":7.801,"z":-9.309},"gyro":{"x":-0.7539,"y":-1.0879,"z":-1.2871},"mag":{"x":1.44,"y":33.94,"z":-25},"quat":{"i":-0.1851,"j":0.4953,"k":-0.3829,"r":0.7575},"euler":{"roll":-56.25,"pitch":37.49,"yaw":-74.19}}}
{"t":1762354841939,"d":{"mac":"2CCF67CB6518","lat":44.8317233,"lon":11.2243812,"sats":11,"qual":2,"speedKmh":0.4,"ts":"251104150041","receivedAt":1762354841938,"accel":{"x":0.473,"y":-0.441,"z":0.32},"gyro":{"x":-0.1309,"y":0.3867,"z":0.0527},"mag":{"x":-36,"y":30.56,"z":8.56},"quat":{"i":-0.3722,"j":-0.5081,"k":-0.2082,"r":0.7484},"euler":{"roll":-59.11,"pitch":-66.26,"yaw":9.52}}}
