{"t":1762354119648,"d":{"mac":"2CCF679AF52F","lat":44.8317565,"lon":11.2240342,"sats":8,"qual":5,"speedKmh":3.5,"ts":"251105144839","receivedAt":1762354119648,"accel":{"x":0.727,"y":-0.016,"z":1.434},"gyro":{"x":-0.2539,"y":0.0879,"z":0.0195},"mag":{"x":-13.69,"y":6.25,"z":-22.5},"quat":{"i":0.2485,"j":-0.3967,"k":0.7227,"r":0.5085},"euler":{"roll":-29.72,"pitch":-49.7,"yaw":123.74}}}
{"t":1762354119648,"d":{"mac":"2CCF67CB6518","lat":44.8317722,"lon":11.224053,"sats":9,"qual":2,"speedKmh":3.8,"ts":"251104144839","receivedAt":1762354119648,"accel":{"x":-1.348,"y":-0.852,"z":1.582},"gyro":{"x":0.2734,"y":-0.0547,"z":-0.0801},"mag":{"x":33.81,"y":27.31,"z":-9.31},"quat":{"i":-0.2073,"j":0.3693,"k":0.2067,"r":0.882},"euler":{"roll":-18.38,"pitch":47.49,"yaw":18.24}}}
{"t":1762354119671,"d":{"mac":"2CCF679AF52F","lat":44.8317563,"lon":11.2240347,"sats":8,"qual":5,"speedKmh":3,"ts":"251105144839","receivedAt":1762354119671,"accel":{"x":0.949,"y":0.188,"z":-0.098},"gyro":{"x":-0.0879,"y":0.0996,"z":-0.1504},"mag":{"x":-14.19,"y":6.75,"z":-22.94},"quat":{"i":0.2416,"j":-0.4017,"k":0.7198,"r":0.512},"euler":{"roll":-30.56,"pitch":-49.4,"yaw":123.47}}}
{"t":1762354119673,"d":{"mac":"2CCF67CB6518","lat":44.8317727,"lon":11.2240528,"sats":9,"qual":2,"speedKmh":1.9,"ts":"251104144839","receivedAt":1762354119673,"accel":{"x":-1.848,"y":-0.445,"z":1.137},"gyro":{"x":0.4238,"y":0.0859,"z":-0.0195},"mag":{"x":33.5,"y":28.75,"z":-9.69},"quat":{"i":-0.2012,"j":0.3713,"k":0.203,"r":0.8834},"euler":{"roll":-17.65,"pitch":47.54,"yaw":18.06}}}
{"t":1762354119726,"d":{"mac":"2CCF67CB6518","lat":44.8317725,"lon":11.2240532,"sats":8,"qual":2,"speedKmh":2,"ts":"251104144839","receivedAt":1762354119726,"accel":{"x":0.504,"y":1.098,"z":-1.426},"gyro":{"x":0.3672,"y":-0.0625,"z":-0.3711},"mag":{"x":32.69,"y":28.12,"z":-12.69},"quat":{"i":-0.1822,"j":0.3672,"k":0.1837,"r":0.8934},"euler":{"roll":-16.02,"pitch":46.31,"yaw":16.34}}}
{"t":1762354119756,"d":{"mac":"2CCF679AF52F","lat":44.8317557,"lon":11.2240358,"sats":8,"qual":5,"speedKmh":3.6,"ts":"251105144839","receivedAt":1762354119756,"accel":{"x":-0.668,"y":0.355,"z":-0.484},"gyro":{"x":0.0527,"y":0.1055,"z":-0.2148},"mag":{"x":-13.44,"y":7.25,"z":-23.12},"quat":{"i":0.2415,"j":-0.3998,"k":0.7173,"r":0.5171},"euler":{"roll":-29.87,"pitch":-49.45,"yaw":122.43}}}
{"t":1762354119804,"d":{"mac":"2CCF67CB6518","lat":44.8317722,"lon":11.2240538,"sats":9,"qual":2,"speedKmh":2.5,"ts":"251104144839","receivedAt":1762354119804,"accel":{"x":-0.371,"y":1.359,"z":-2},"gyro":{"x":0.3945,"y":0.4512,"z":-0.1973},"mag":{"x":31.69,"y":28.12,"z":-12.25},"quat":{"i":-0.1764,"j":0.3723,"k":0.1729,"r":0.8947},"euler":{"roll":-15.8,"pitch":46.64,"yaw":15.02}}}
{"t":1762354119806,"d":{"mac":"2CCF679AF52F","lat":44.8317553,"lon":11.2240362,"sats":8,"qual":5,"speedKmh":3.5,"ts":"251105144839","receivedAt":1762354119806,"accel":{"x":1.406,"y":0.195,"z":-1.395},"gyro":{"x":0.3242,"y":-0.0762,"z":-0.2051},"mag":{"x":-14.38,"y":8.69,"z":-24.31},"quat":{"i":0.2562,"j":-0.3904,"k":0.7145,"r":0.521},"euler":{"roll":-27.29,"pitch":-50.62,"yaw":120.9}}}
{"t":1762354119874,"d":{"mac":"2CCF67CB6518","lat":44.8317713,"lon":11.2240543,"sats":9,"qual":5,"speedKmh":2.8,"ts":"251104144839","receivedAt":1762354119874,"accel":{"x":-0.59,"y":1.641,"z":-0.719},"gyro":{"x":0.4082,"y":0.6309,"z":0},"mag":{"x":32.38,"y":29.56,"z":-13.12},"quat":{"i":-0.1714,"j":0.3868,"k":0.1642,"r":0.8911},"euler":{"roll":-15.54,"pitch":48.22,"yaw":13.9}}}
{"t":1762354119875,"d":{"mac":"2CCF679AF52F","lat":44.8317548,"lon":11.2240362,"sats":8,"qual":5,"speedKmh":2.9,"ts":"251105144839","receivedAt":1762354119875,"accel":{"x":0.094,"y":0.734,"z":-0.566},"gyro":{"x":-0.1816,"y":-0.3203,"z":-0.3906},"mag":{"x":-13.69,"y":6.69,"z":-22.56},"quat":{"i":0.2656,"j":-0.394,"k":0.7064,"r":0.5247},"euler":{"roll":-26.88,"pitch":-52.07,"yaw":120.11}}}
{"t":1762354119927,"d":{"mac":"2CCF67CB6518","lat":44.8317705,"lon":11.224055,"sats":9,"qual":5,"speedKmh":3.4,"ts":"251104144839","receivedAt":1762354119927,"accel":{"x":0.879,"y":0.625,"z":0.719},"gyro":{"x":0.2266,"y":0.3965,"z":0.1328},"mag":{"x":32.38,"y":27.75,"z":-12.62},"quat":{"i":-0.1613,"j":0.4069,"k":0.1604,"r":0.8847},"euler":{"roll":-14.09,"pitch":50.51,"yaw":13.88}}}
{"t":1762354119952,"d":{"mac":"2CCF679AF52F","lat":44.8317547,"lon":11.2240363,"sats":8,"qual":5,"speedKmh":2.2,"ts":"251105144839","receivedAt":1762354119951,"accel":{"x":-0.723,"y":-0.309,"z":-0.48},"gyro":{"x":-0.0488,"y":-0.1211,"z":-0.4121},"mag":{"x":-14,"y":7.88,"z":-22.5},"quat":{"i":0.2722,"j":-0.3963,"k":0.6982,"r":0.5305},"euler":{"roll":-26.21,"pitch":-53.18,"yaw":118.85}}}
{"t":1762354119996,"d":{"mac":"2CCF67CB6518","lat":44.8317705,"lon":11.2240553,"sats":9,"qual":5,"speedKmh":2.5,"ts":"251104144839","receivedAt":1762354119996,"accel":{"x":0.844,"y":0.668,"z":-0.023},"gyro":{"x":0.1914,"y":0.0918,"z":-0.0078},"mag":{"x":32.38,"y":28.44,"z":-12.62},"quat":{"i":-0.1568,"j":0.41,"k":0.1585,"r":0.8844},"euler":{"roll":-13.48,"pitch":50.8,"yaw":13.9}}}
{"t":1762354119996,"d":{"mac":"2CCF679AF52F","lat":44.8317545,"lon":11.2240372,"sats":8,"qual":5,"speedKmh":2.2,"ts":"251105144839","receivedAt":1762354119996,"accel":{"x":-0.723,"y":-0.543,"z":-0.898},"gyro":{"x":0.0469,"y":-0.0508,"z":-0.377},"mag":{"x":-15.75,"y":6.12,"z":-20.62},"quat":{"i":0.2775,"j":-0.394,"k":0.6926,"r":0.5367},"euler":{"roll":-24.85,"pitch":-53.84,"yaw":117.21}}}
{"t":1762354120066,"d":{"mac":"2CCF679AF52F","lat":44.8317542,"lon":11.2240377,"sats":8,"qual":5,"speedKmh":2.4,"ts":"251105144839","receivedAt":1762354120066,"accel":{"x":-0.895,"y":-0.508,"z":-1.289},"gyro":{"x":-0.2598,"y":-0.1133,"z":-0.2148},"mag":{"x":-15.5,"y":6.75,"z":-21.44},"quat":{"i":0.2852,"j":-0.3953,"k":0.6813,"r":0.5461},"euler":{"roll":-23.41,"pitch":-55.12,"yaw":114.91}}}
{"t":1762354120074,"d":{"mac":"2CCF67CB6518","lat":44.8317705,"lon":11.2240555,"sats":9,"qual":5,"speedKmh":1.9,"ts":"251104144839","receivedAt":1762354120074,"accel":{"x":0.914,"y":0.484,"z":-0.176},"gyro":{"x":0.2598,"y":0.1621,"z":-0.0352},"mag":{"x":33.06,"y":27.38,"z":-12.25},"quat":{"i":-0.1523,"j":0.4141,"k":0.1553,"r":0.8839},"euler":{"roll":-12.96,"pitch":51.2,"yaw":13.71}}}
{"t":1762354120128,"d":{"mac":"2CCF679AF52F","lat":44.831754,"lon":11.2240385,"sats":8,"qual":5,"speedKmh":2.7,"ts":"251105144840","receivedAt":1762354120128,"accel":{"x":-0.242,"y":-0.984,"z":-0.375},"gyro":{"x":-0.1934,"y":-0.1133,"z":-0.1406},"mag":{"x":-15.25,"y":6.94,"z":-22.31},"quat":{"i":0.2856,"j":-0.3994,"k":0.6758,"r":0.5497},"euler":{"roll":-23.57,"pitch":-55.6,"yaw":114.31}}}
{"t":1762354120151,"d":{"mac":"2CCF67CB6518","lat":44.8317702,"lon":11.224056,"sats":9,"qual":5,"speedKmh":2.4,"ts":"251104144840","receivedAt":1762354120151,"accel":{"x":0.562,"y":0.461,"z":0.23},"gyro":{"x":0.0742,"y":0.1094,"z":-0.1191},"mag":{"x":32.69,"y":29.19,"z":-14.38},"quat":{"i":-0.1481,"j":0.4213,"k":0.1476,"r":0.8825},"euler":{"roll":-12.84,"pitch":51.94,"yaw":12.72}}}
{"t":1762354120197,"d":{"mac":"2CCF679AF52F","lat":44.8317535,"lon":11.2240387,"sats":8,"qual":5,"speedKmh":2.5,"ts":"251105144840","receivedAt":1762354120197,"accel":{"x":-0.016,"y":-1.066,"z":0.348},"gyro":{"x":-0.0801,"y":-0.043,"z":-0.1035},"mag":{"x":-15.19,"y":7.38,"z":-20.38},"quat":{"i":0.2864,"j":-0.4022,"k":0.6719,"r":0.5519},"euler":{"roll":-23.65,"pitch":-55.99,"yaw":113.9}}}
{"t":1762354120203,"d":{"mac":"2CCF67CB6518","lat":44.8317698,"lon":11.2240565,"sats":9,"qual":5,"speedKmh":2.8,"ts":"251104144840","receivedAt":1762354120203,"accel":{"x":0.039,"y":0.262,"z":0.578},"gyro":{"x":-0.0156,"y":0.0312,"z":-0.1895},"mag":{"x":32,"y":29.19,"z":-13.06},"quat":{"i":-0.1496,"j":0.4228,"k":0.1439,"r":0.8821},"euler":{"roll":-13.38,"pitch":52.09,"yaw":11.97}}}
{"t":1762354120283,"d":{"mac":"2CCF67CB6518","lat":44.8317697,"lon":11.2240568,"sats":9,"qual":5,"speedKmh":2.2,"ts":"251104144840","receivedAt":1762354120283,"accel":{"x":0.406,"y":0.27,"z":0.57},"gyro":{"x":-0.1211,"y":-0.1074,"z":-0.2285},"mag":{"x":31.69,"y":28.44,"z":-14.38},"quat":{"i":-0.1531,"j":0.4211,"k":0.14,"r":0.883},"euler":{"roll":-14.29,"pitch":51.86,"yaw":11.05}}}
{"t":1762354120296,"d":{"mac":"2CCF679AF52F","lat":44.8317532,"lon":11.2240387,"sats":8,"qual":5,"speedKmh":2,"ts":"251105144840","receivedAt":1762354120296,"accel":{"x":-0.082,"y":-0.055,"z":-0.484},"gyro":{"x":-0.0527,"y":0.4961,"z":0.1504},"mag":{"x":-15.06,"y":7.25,"z":-19.81},"quat":{"i":0.2814,"j":-0.3936,"k":0.6772,"r":0.5543},"euler":{"roll":-22.59,"pitch":-54.83,"yaw":113.23}}}
{"t":1762354120322,"d":{"mac":"2CCF679AF52F","lat":44.8317532,"lon":11.2240392,"sats":8,"qual":5,"speedKmh":1.9,"ts":"251105144840","receivedAt":1762354120321,"accel":{"x":-0.086,"y":0.238,"z":-0.777},"gyro":{"x":-0.3555,"y":0.3867,"z":0.1113},"mag":{"x":-13.25,"y":9.31,"z":-21.5},"quat":{"i":0.2685,"j":-0.3915,"k":0.6802,"r":0.5586},"euler":{"roll":-22.95,"pitch":-53.38,"yaw":112.86}}}
{"t":1762354120343,"d":{"mac":"2CCF67CB6518","lat":44.8317695,"lon":11.2240575,"sats":9,"qual":5,"speedKmh":2.6,"ts":"251104144840","receivedAt":1762354120343,"accel":{"x":-0.859,"y":-0.621,"z":1.098},"gyro":{"x":0.1191,"y":-0.0566,"z":-0.4082},"mag":{"x":29.81,"y":29.56,"z":-13.12},"quat":{"i":-0.1609,"j":0.4111,"k":0.1292,"r":0.8879},"euler":{"roll":-16.4,"pitch":50.5,"yaw":8.78}}}
{"t":1762354120396,"d":{"mac":"2CCF679AF52F","lat":44.8317532,"lon":11.2240402,"sats":8,"qual":5,"speedKmh":2.3,"ts":"251105144840","receivedAt":1762354120396,"accel":{"x":2.266,"y":-1.023,"z":0.363},"gyro":{"x":-0.3672,"y":-0.3027,"z":0.0625},"mag":{"x":-13.69,"y":10.12,"z":-23.56},"quat":{"i":0.2623,"j":-0.3988,"k":0.6775,"r":0.5596},"euler":{"roll":-24.39,"pitch":-53.3,"yaw":113.26}}}
{"t":1762354120403,"d":{"mac":"2CCF67CB6518","lat":44.8317692,"lon":11.2240585,"sats":9,"qual":5,"speedKmh":3.7,"ts":"251104144840","receivedAt":1762354120403,"accel":{"x":-3.953,"y":-0.48,"z":1.012},"gyro":{"x":0.3809,"y":0.0352,"z":-0.0977},"mag":{"x":29.06,"y":29.94,"z":-14.81},"quat":{"i":-0.1583,"j":0.4117,"k":0.1199,"r":0.8894},"euler":{"roll":-16.67,"pitch":50.38,"yaw":7.47}}}
{"t":1762354120467,"d":{"mac":"2CCF679AF52F","lat":44.8317532,"lon":11.224041,"sats":8,"qual":5,"speedKmh":2.6,"ts":"251105144840","receivedAt":1762354120466,"accel":{"x":-0.715,"y":1.828,"z":-0.07},"gyro":{"x":-0.2109,"y":0.0352,"z":-0.0156},"mag":{"x":-12.62,"y":10.38,"z":-22.38},"quat":{"i":0.2624,"j":-0.4052,"k":0.6742,"r":0.559},"euler":{"roll":-25.36,"pitch":-53.78,"yaw":113.7}}}
{"t":1762354120484,"d":{"mac":"2CCF67CB6518","lat":44.831769,"lon":11.2240592,"sats":9,"qual":5,"speedKmh":3.2,"ts":"251104144840","receivedAt":1762354120484,"accel":{"x":-0.148,"y":-0.273,"z":0.004},"gyro":{"x":0.6582,"y":-0.2363,"z":-0.0449},"mag":{"x":28.69,"y":29.19,"z":-15.19},"quat":{"i":-0.1411,"j":0.4075,"k":0.1143,"r":0.895},"euler":{"roll":-14.25,"pitch":49.61,"yaw":7.94}}}
{"t":1762354120526,"d":{"mac":"2CCF67CB6518","lat":44.8317688,"lon":11.2240598,"sats":9,"qual":5,"speedKmh":2.9,"ts":"251104144840","receivedAt":1762354120526,"accel":{"x":-1.742,"y":0.215,"z":-1.133},"gyro":{"x":0.6406,"y":0.1504,"z":0.0879},"mag":{"x":28.31,"y":29.25,"z":-16.94},"quat":{"i":-0.1251,"j":0.4084,"k":0.107,"r":0.8978},"euler":{"roll":-12.2,"pitch":49.48,"yaw":7.95}}}
{"t":1762354120527,"d":{"mac":"2CCF679AF52F","lat":44.8317528,"lon":11.2240412,"sats":8,"qual":5,"speedKmh":2.1,"ts":"251105144840","receivedAt":1762354120527,"accel":{"x":0.977,"y":0.926,"z":-0.527},"gyro":{"x":-0.5371,"y":-0.3789,"z":-0.2188},"mag":{"x":-13.75,"y":9.75,"z":-21.94},"quat":{"i":0.2607,"j":-0.4135,"k":0.6672,"r":0.5621},"euler":{"roll":-26.34,"pitch":-54.37,"yaw":113.48}}}
{"t":1762354120596,"d":{"mac":"2CCF67CB6518","lat":44.8317688,"lon":11.22406,"sats":9,"qual":5,"speedKmh":1.9,"ts":"251104144840","receivedAt":1762354120596,"accel":{"x":-0.562,"y":0.699,"z":-0.938},"gyro":{"x":0.377,"y":0.1367,"z":0.3047},"mag":{"x":29.81,"y":28.56,"z":-16.44},"quat":{"i":-0.1122,"j":0.4149,"k":0.1065,"r":0.8966},"euler":{"roll":-10.14,"pitch":50.17,"yaw":8.79}}}
{"t":1762354120596,"d":{"mac":"2CCF679AF52F","lat":44.8317527,"lon":11.2240412,"sats":8,"qual":5,"speedKmh":1.5,"ts":"251105144840","receivedAt":1762354120596,"accel":{"x":0.469,"y":0.41,"z":0.09},"gyro":{"x":-0.3125,"y":-0.6387,"z":-0.2891},"mag":{"x":-13.75,"y":9.75,"z":-21.94},"quat":{"i":0.2667,"j":-0.4273,"k":0.6545,"r":0.5638},"euler":{"roll":-27.71,"pitch":-56.19,"yaw":113.52}}}
{"t":1762354120657,"d":{"mac":"2CCF679AF52F","lat":44.8317527,"lon":11.2240418,"sats":8,"qual":5,"speedKmh":2,"ts":"251105144840","receivedAt":1762354120656,"accel":{"x":-0.77,"y":-0.027,"z":1.16},"gyro":{"x":-0.2129,"y":-0.2891,"z":-0.1719},"mag":{"x":-13.75,"y":11.12,"z":-20.44},"quat":{"i":0.2737,"j":-0.4367,"k":0.6451,"r":0.5641},"euler":{"roll":-28.51,"pitch":-57.76,"yaw":113.62}}}
{"t":1762354120666,"d":{"mac":"2CCF67CB6518","lat":44.8317687,"lon":11.2240603,"sats":8,"qual":5,"speedKmh":1.7,"ts":"251104144840","receivedAt":1762354120666,"accel":{"x":0.59,"y":-0.59,"z":-0.426},"gyro":{"x":0.3242,"y":-0.0879,"z":0.1777},"mag":{"x":29.44,"y":27.06,"z":-18.12},"quat":{"i":-0.1019,"j":0.4171,"k":0.1086,"r":0.8966},"euler":{"roll":-8.3,"pitch":50.36,"yaw":9.91}}}
{"t":1762354120727,"d":{"mac":"2CCF679AF52F","lat":44.8317527,"lon":11.2240427,"sats":8,"qual":5,"speedKmh":2.2,"ts":"251105144840","receivedAt":1762354120726,"accel":{"x":-0.676,"y":0.043,"z":0.281},"gyro":{"x":0.1113,"y":0.1172,"z":-0.0352},"mag":{"x":-13.56,"y":10.5,"z":-21.44},"quat":{"i":0.2778,"j":-0.4359,"k":0.6424,"r":0.5659},"euler":{"roll":-27.82,"pitch":-58.23,"yaw":112.96}}}
{"t":1762354120736,"d":{"mac":"2CCF67CB6518","lat":44.8317683,"lon":11.224061,"sats":9,"qual":5,"speedKmh":2.5,"ts":"251104144840","receivedAt":1762354120736,"accel":{"x":0.832,"y":-0.52,"z":-1.117},"gyro":{"x":0.2773,"y":-0.1641,"z":0.0508},"mag":{"x":29.44,"y":27.44,"z":-19.81},"quat":{"i":-0.0874,"j":0.4131,"k":0.1066,"r":0.9001},"euler":{"roll":-6.15,"pitch":49.68,"yaw":10.65}}}
{"t":1762354120787,"d":{"mac":"2CCF679AF52F","lat":44.8317525,"lon":11.224043,"sats":8,"qual":5,"speedKmh":2.1,"ts":"251105144840","receivedAt":1762354120787,"accel":{"x":-0.363,"y":0.379,"z":0.387},"gyro":{"x":-0.0684,"y":0.0156,"z":-0.1172},"mag":{"x":-14.31,"y":9.5,"z":-20.88},"quat":{"i":0.2783,"j":-0.4342,"k":0.6418,"r":0.5676},"euler":{"roll":-27.28,"pitch":-58.22,"yaw":112.41}}}
{"t":1762354120806,"d":{"mac":"2CCF67CB6518","lat":44.8317678,"lon":11.2240613,"sats":9,"qual":5,"speedKmh":2.5,"ts":"251104144840","receivedAt":1762354120806,"accel":{"x":0.082,"y":-0.527,"z":-0.797},"gyro":{"x":-0.0059,"y":-0.0391,"z":-0.0234},"mag":{"x":29.44,"y":26.31,"z":-18.12},"quat":{"i":-0.085,"j":0.4124,"k":0.1053,"r":0.9009},"euler":{"roll":-5.86,"pitch":49.54,"yaw":10.64}}}
{"t":1762354120856,"d":{"mac":"2CCF679AF52F","lat":44.8317527,"lon":11.2240435,"sats":8,"qual":5,"speedKmh":2,"ts":"251105144840","receivedAt":1762354120856,"accel":{"x":-0.516,"y":0.523,"z":0.469},"gyro":{"x":-0.0957,"y":0.0508,"z":-0.0352},"mag":{"x":-13.38,"y":11.19,"z":-20.62},"quat":{"i":0.2769,"j":-0.4352,"k":0.6395,"r":0.57},"euler":{"roll":-27.25,"pitch":-58.25,"yaw":111.96}}}
{"t":1762354120891,"d":{"mac":"2CCF67CB6518","lat":44.8317678,"lon":11.2240615,"sats":9,"qual":5,"speedKmh":1.7,"ts":"251104144840","receivedAt":1762354120891,"accel":{"x":0.148,"y":-0.426,"z":-0.566},"gyro":{"x":-0.1191,"y":-0.0645,"z":-0.0332},"mag":{"x":29.81,"y":26.38,"z":-20.25},"quat":{"i":-0.0864,"j":0.4112,"k":0.1055,"r":0.9013},"euler":{"roll":-6.09,"pitch":49.42,"yaw":10.55}}}
{"t":1762354120927,"d":{"mac":"2CCF679AF52F","lat":44.8317525,"lon":11.224044,"sats":8,"qual":5,"speedKmh":1.9,"ts":"251105144840","receivedAt":1762354120926,"accel":{"x":-0.41,"y":0.102,"z":0.043},"gyro":{"x":-0.3496,"y":-0.0059,"z":0.1133},"mag":{"x":-13.75,"y":11.94,"z":-20.81},"quat":{"i":0.2707,"j":-0.4398,"k":0.6379,"r":0.5714},"euler":{"roll":-28.34,"pitch":-57.98,"yaw":112.22}}}
{"t":1762354120936,"d":{"mac":"2CCF67CB6518","lat":44.8317677,"lon":11.2240622,"sats":9,"qual":5,"speedKmh":2.2,"ts":"251104144840","receivedAt":1762354120936,"accel":{"x":-0.52,"y":-0.527,"z":0.664},"gyro":{"x":0.1914,"y":-0.2148,"z":-0.0801},"mag":{"x":28.69,"y":27.12,"z":-20.25},"quat":{"i":-0.084,"j":0.4042,"k":0.1031,"r":0.905},"euler":{"roll":-5.94,"pitch":48.49,"yaw":10.33}}}
{"t":1762354120986,"d":{"mac":"2CCF679AF52F","lat":44.8317518,"lon":11.224044,"sats":8,"qual":5,"speedKmh":1.8,"ts":"251105144840","receivedAt":1762354120986,"accel":{"x":0.027,"y":-0.102,"z":0.125},"gyro":{"x":-0.4629,"y":-0.1484,"z":0.1582},"mag":{"x":-13.88,"y":12.44,"z":-23.12},"quat":{"i":0.2636,"j":-0.4481,"k":0.6345,"r":0.5719},"euler":{"roll":-30.18,"pitch":-57.9,"yaw":112.91}}}
{"t":1762354121022,"d":{"mac":"2CCF67CB6518","lat":44.8317677,"lon":11.2240625,"sats":9,"qual":5,"speedKmh":2,"ts":"251104144840","receivedAt":1762354121022,"accel":{"x":-0.504,"y":-0.289,"z":0.742},"gyro":{"x":0.2285,"y":-0.0527,"z":0},"mag":{"x":28.31,"y":27.88,"z":-21.12},"quat":{"i":-0.0789,"j":0.4006,"k":0.1,"r":0.9073},"euler":{"roll":-5.4,"pitch":47.96,"yaw":10.18}}}
{"t":1762354121064,"d":{"mac":"2CCF679AF52F","lat":44.8317512,"lon":11.2240442,"sats":8,"qual":5,"speedKmh":2.2,"ts":"251105144840","receivedAt":1762354121064,"accel":{"x":1.199,"y":-0.266,"z":0.668},"gyro":{"x":-0.1562,"y":-0.1855,"z":0.1621},"mag":{"x":-12.94,"y":11.12,"z":-20.31},"quat":{"i":0.2584,"j":-0.4669,"k":0.6287,"r":0.5656},"euler":{"roll":-34.41,"pitch":-58.55,"yaw":115.75}}}
{"t":1762354121084,"d":{"mac":"2CCF67CB6518","lat":44.8317673,"lon":11.2240627,"sats":9,"qual":5,"speedKmh":1.5,"ts":"251104144840","receivedAt":1762354121084,"accel":{"x":-0.43,"y":0.625,"z":1.016},"gyro":{"x":0.252,"y":-0.4102,"z":0.0586},"mag":{"x":28.31,"y":26.75,"z":-23.62},"quat":{"i":-0.059,"j":0.3984,"k":0.094,"r":0.9105},"euler":{"roll":-2.75,"pitch":47.44,"yaw":10.58}}}
{"t":1762354121123,"d":{"mac":"2CCF679AF52F","lat":44.831751,"lon":11.2240445,"sats":8,"qual":5,"speedKmh":2,"ts":"251105144841","receivedAt":1762354121123,"accel":{"x":-0.18,"y":0.824,"z":0.715},"gyro":{"x":-0.25,"y":0.0312,"z":0.1582},"mag":{"x":-13.62,"y":14,"z":-20.81},"quat":{"i":0.2556,"j":-0.472,"k":0.6279,"r":0.5635},"euler":{"roll":-35.71,"pitch":-58.53,"yaw":116.65}}}
{"t":1762354121143,"d":{"mac":"2CCF67CB6518","lat":44.831767,"lon":11.224063,"sats":9,"qual":5,"speedKmh":1.3,"ts":"251104144841","receivedAt":1762354121143,"accel":{"x":0.051,"y":0.133,"z":-1.109},"gyro":{"x":-0.0215,"y":-0.5137,"z":0.0117},"mag":{"x":26.81,"y":26,"z":-23.19},"quat":{"i":-0.0546,"j":0.3875,"k":0.0941,"r":0.9155},"euler":{"roll":-2.23,"pitch":46.03,"yaw":10.79}}}
{"t":1762354121194,"d":{"mac":"2CCF679AF52F","lat":44.831751,"lon":11.2240447,"sats":8,"qual":5,"speedKmh":1.4,"ts":"251105144841","receivedAt":1762354121194,"accel":{"x":-1.105,"y":0.176,"z":-0.211},"gyro":{"x":-0.0586,"y":0.0371,"z":0.2754},"mag":{"x":-15.12,"y":12.44,"z":-19.69},"quat":{"i":0.2502,"j":-0.4747,"k":0.6296,"r":0.5618},"euler":{"roll":-36.73,"pitch":-58.04,"yaw":117.38}}}
{"t":1762354121206,"d":{"mac":"2CCF67CB6518","lat":44.8317667,"lon":11.2240633,"sats":9,"qual":5,"speedKmh":1.6,"ts":"251104144841","receivedAt":1762354121206,"accel":{"x":0.699,"y":0.203,"z":-2.211},"gyro":{"x":-0.0684,"y":-0.4023,"z":-0.127},"mag":{"x":27.94,"y":24.5,"z":-22.75},"quat":{"i":-0.0552,"j":0.3766,"k":0.0941,"r":0.9199},"euler":{"roll":-2.48,"pitch":44.69,"yaw":10.65}}}
{"t":1762354121286,"d":{"mac":"2CCF679AF52F","lat":44.831751,"lon":11.2240452,"sats":8,"qual":5,"speedKmh":1.7,"ts":"251105144841","receivedAt":1762354121286,"accel":{"x":-0.629,"y":-0.402,"z":-0.48},"gyro":{"x":0.0176,"y":-0.0352,"z":0.5215},"mag":{"x":-12.31,"y":13.5,"z":-20},"quat":{"i":0.2459,"j":-0.4775,"k":0.6346,"r":0.5557},"euler":{"roll":-38.19,"pitch":-57.44,"yaw":119.07}}}
{"t":1762354121296,"d":{"mac":"2CCF67CB6518","lat":44.8317665,"lon":11.2240637,"sats":9,"qual":5,"speedKmh":2,"ts":"251104144841","receivedAt":1762354121296,"accel":{"x":-0.797,"y":1.672,"z":-0.465},"gyro":{"x":-0.4863,"y":-0.1074,"z":-0.0957},"mag":{"x":25.69,"y":26.75,"z":-24.94},"quat":{"i":-0.0665,"j":0.3666,"k":0.0886,"r":0.9238},"euler":{"roll":-4.58,"pitch":43.55,"yaw":9.13}}}
{"t":1762354121309,"d":{"mac":"2CCF679AF52F","lat":44.8317507,"lon":11.2240458,"sats":8,"qual":5,"speedKmh":2.2,"ts":"251105144841","receivedAt":1762354121309,"accel":{"x":0.262,"y":-1.066,"z":0.867},"gyro":{"x":0.123,"y":-0.0859,"z":0.7441},"mag":{"x":-12.81,"y":14.44,"z":-20.75},"quat":{"i":0.2352,"j":-0.4831,"k":0.6565,"r":0.5295},"euler":{"roll":-42.35,"pitch":-55.12,"yaw":125.09}}}
{"t":1762354121334,"d":{"mac":"2CCF67CB6518","lat":44.8317663,"lon":11.2240637,"sats":9,"qual":5,"speedKmh":1.4,"ts":"251104144841","receivedAt":1762354121334,"accel":{"x":-0.805,"y":1.852,"z":0.125},"gyro":{"x":-0.8477,"y":-0.2852,"z":0.0898},"mag":{"x":25,"y":26,"z":-23.62},"quat":{"i":-0.0814,"j":0.3611,"k":0.0941,"r":0.9242},"euler":{"roll":-6.48,"pitch":43.07,"yaw":9.07}}}
{"t":1762354121387,"d":{"mac":"2CCF679AF52F","lat":44.8317503,"lon":11.2240462,"sats":7,"qual":2,"speedKmh":2.5,"ts":"251105144841","receivedAt":1762354121386,"accel":{"x":0.434,"y":-1.223,"z":0.734},"gyro":{"x":0.7715,"y":0.1406,"z":0.8613},"mag":{"x":-11.81,"y":15.94,"z":-21.94},"quat":{"i":0.2317,"j":-0.4767,"k":0.6754,"r":0.5128},"euler":{"roll":-42.85,"pitch":-53.31,"yaw":127.86}}}
{"t":1762354121414,"d":{"mac":"2CCF67CB6518","lat":44.8317662,"lon":11.224064,"sats":9,"qual":5,"speedKmh":1.2,"ts":"251104144841","receivedAt":1762354121414,"accel":{"x":0.164,"y":1.195,"z":0.207},"gyro":{"x":-0.9629,"y":-0.3965,"z":0.166},"mag":{"x":25.38,"y":27.5,"z":-21.94},"quat":{"i":-0.1003,"j":0.3511,"k":0.1055,"r":0.9249},"euler":{"roll":-8.64,"pitch":42.12,"yaw":9.69}}}
{"t":1762354121447,"d":{"mac":"2CCF679AF52F","lat":44.8317502,"lon":11.2240462,"sats":8,"qual":2,"speedKmh":1.7,"ts":"251105144841","receivedAt":1762354121446,"accel":{"x":0.031,"y":-0.844,"z":-0.203},"gyro":{"x":0.8379,"y":0.1543,"z":0.875},"mag":{"x":-12.19,"y":15.44,"z":-21.62},"quat":{"i":0.2286,"j":-0.4664,"k":0.6966,"r":0.495},"euler":{"roll":-42.6,"pitch":-51.27,"yaw":130.4}}}
{"t":1762354121491,"d":{"mac":"2CCF67CB6518","lat":44.831766,"lon":11.2240643,"sats":9,"qual":5,"speedKmh":1.2,"ts":"251104144841","receivedAt":1762354121491,"accel":{"x":0.117,"y":0.75,"z":-0.148},"gyro":{"x":-0.7734,"y":-0.3965,"z":0.2246},"mag":{"x":25,"y":28.88,"z":-21.56},"quat":{"i":-0.1172,"j":0.34,"k":0.1183,"r":0.9255},"euler":{"roll":-10.44,"pitch":41.08,"yaw":10.65}}}
{"t":1762354121517,"d":{"mac":"2CCF679AF52F","lat":44.8317502,"lon":11.2240462,"sats":8,"qual":2,"speedKmh":1,"ts":"251105144841","receivedAt":1762354121517,"accel":{"x":-0.594,"y":-0.441,"z":-0.949},"gyro":{"x":0.9199,"y":0,"z":0.7461},"mag":{"x":-10.81,"y":12.81,"z":-24.06},"quat":{"i":0.2267,"j":-0.4401,"k":0.7399,"r":0.4554},"euler":{"roll":-41.1,"pitch":-47.42,"yaw":135.48}}}
{"t":1762354121553,"d":{"mac":"2CCF67CB6518","lat":44.831766,"lon":11.2240647,"sats":9,"qual":5,"speedKmh":1.2,"ts":"251104144841","receivedAt":1762354121553,"accel":{"x":1.004,"y":0.219,"z":-0.484},"gyro":{"x":-0.6562,"y":-0.0664,"z":0.3145},"mag":{"x":25.38,"y":29.62,"z":-20.31},"quat":{"i":-0.1426,"j":0.3271,"k":0.1425,"r":0.9233},"euler":{"roll":-12.85,"pitch":40.14,"yaw":12.83}}}
{"t":1762354121587,"d":{"mac":"2CCF679AF52F","lat":44.8317502,"lon":11.224047,"sats":8,"qual":2,"speedKmh":1.9,"ts":"251105144841","receivedAt":1762354121586,"accel":{"x":-0.406,"y":-0.492,"z":-1.145},"gyro":{"x":0.9883,"y":-0.0527,"z":0.5879},"mag":{"x":-11.19,"y":11.94,"z":-25.44},"quat":{"i":0.2305,"j":-0.4268,"k":0.7572,"r":0.4374},"euler":{"roll":-40.02,"pitch":-46.26,"yaw":137.65}}}
{"t":1762354121614,"d":{"mac":"2CCF67CB6518","lat":44.8317658,"lon":11.224065,"sats":9,"qual":5,"speedKmh":1.5,"ts":"251104144841","receivedAt":1762354121614,"accel":{"x":1.363,"y":0.453,"z":0.176},"gyro":{"x":-0.707,"y":-0.002,"z":0.4258},"mag":{"x":26.81,"y":28.88,"z":-19.88},"quat":{"i":-0.1551,"j":0.3254,"k":0.1562,"r":0.9196},"euler":{"roll":-13.93,"pitch":40.31,"yaw":14.15}}}
{"t":1762354121646,"d":{"mac":"2CCF679AF52F","lat":44.8317498,"lon":11.2240473,"sats":8,"qual":2,"speedKmh":1.9,"ts":"251105144841","receivedAt":1762354121646,"accel":{"x":-0.621,"y":-0.887,"z":-0.695},"gyro":{"x":1.0176,"y":-0.1113,"z":0.2695},"mag":{"x":-10.94,"y":11.12,"z":-25.56},"quat":{"i":0.2385,"j":-0.4104,"k":0.7723,"r":0.4222},"euler":{"roll":-38.21,"pitch":-45.63,"yaw":139.25}}}
{"t":1762354121684,"d":{"mac":"2CCF67CB6518","lat":44.8317658,"lon":11.2240653,"sats":9,"qual":5,"speedKmh":1.5,"ts":"251104144841","receivedAt":1762354121684,"accel":{"x":1.516,"y":0.184,"z":-0.062},"gyro":{"x":-0.8359,"y":0.1348,"z":0.4492},"mag":{"x":26.12,"y":30,"z":-18.62},"quat":{"i":-0.1686,"j":0.3259,"k":0.1712,"r":0.9143},"euler":{"roll":-15.07,"pitch":40.82,"yaw":15.57}}}
{"t":1762354121717,"d":{"mac":"2CCF679AF52F","lat":44.8317498,"lon":11.2240482,"sats":8,"qual":2,"speedKmh":2.3,"ts":"251105144841","receivedAt":1762354121716,"accel":{"x":-1.035,"y":-0.77,"z":-0.898},"gyro":{"x":0.707,"y":-0.3262,"z":-0.0273},"mag":{"x":-12.56,"y":10.19,"z":-25.38},"quat":{"i":0.2626,"j":-0.3865,"k":0.7862,"r":0.4044},"euler":{"roll":-35.07,"pitch":-46.52,"yaw":141.03}}}
{"t":1762354121743,"d":{"mac":"2CCF67CB6518","lat":44.8317657,"lon":11.2240655,"sats":9,"qual":5,"speedKmh":1.5,"ts":"251104144841","receivedAt":1762354121743,"accel":{"x":1.668,"y":-0.168,"z":0.027},"gyro":{"x":-0.877,"y":0.2324,"z":0.4297},"mag":{"x":28.31,"y":29.94,"z":-15.69},"quat":{"i":-0.2006,"j":0.3314,"k":0.2032,"r":0.8992},"euler":{"roll":-17.9,"pitch":42.65,"yaw":18.43}}}
{"t":1762354121776,"d":{"mac":"2CCF679AF52F","lat":44.83175,"lon":11.2240493,"sats":8,"qual":2,"speedKmh":2.9,"ts":"251105144841","receivedAt":1762354121776,"accel":{"x":-1.391,"y":-1.102,"z":-0.605},"gyro":{"x":0.6172,"y":-0.248,"z":0.0762},"mag":{"x":-13.69,"y":7.94,"z":-24.44},"quat":{"i":0.2753,"j":-0.3768,"k":0.7905,"r":0.3967},"euler":{"roll":-33.76,"pitch":-47.23,"yaw":141.82}}}
{"t":1762354121821,"d":{"mac":"2CCF67CB6518","lat":44.8317655,"lon":11.2240658,"sats":9,"qual":5,"speedKmh":1.7,"ts":"251104144841","receivedAt":1762354121821,"accel":{"x":1.555,"y":-0.281,"z":0.344},"gyro":{"x":-0.7031,"y":0.2012,"z":0.5039},"mag":{"x":28.38,"y":29.94,"z":-14.38},"quat":{"i":-0.2155,"j":0.3351,"k":0.2181,"r":0.8909},"euler":{"roll":-19.2,"pitch":43.71,"yaw":19.75}}}
{"t":1762354121854,"d":{"mac":"2CCF679AF52F","lat":44.8317498,"lon":11.2240497,"sats":8,"qual":2,"speedKmh":2.7,"ts":"251105144841","receivedAt":1762354121854,"accel":{"x":-1.23,"y":-1.527,"z":-0.398},"gyro":{"x":0.7031,"y":-0.2207,"z":0.2207},"mag":{"x":-13.12,"y":6.5,"z":-25.19},"quat":{"i":0.2845,"j":-0.3675,"k":0.7969,"r":0.3859},"euler":{"roll":-32.8,"pitch":-47.49,"yaw":143.07}}}
{"t":1762354121883,"d":{"mac":"2CCF67CB6518","lat":44.8317653,"lon":11.2240665,"sats":9,"qual":5,"speedKmh":2.5,"ts":"251104144841","receivedAt":1762354121883,"accel":{"x":0.953,"y":-1.422,"z":1.754},"gyro":{"x":-0.7305,"y":0.1113,"z":0.416},"mag":{"x":29.81,"y":29.88,"z":-10.19},"quat":{"i":-0.2405,"j":0.3419,"k":0.2469,"r":0.8743},"euler":{"roll":-21.16,"pitch":45.77,"yaw":22.52}}}
{"t":1762354121916,"d":{"mac":"2CCF679AF52F","lat":44.8317493,"lon":11.2240505,"sats":8,"qual":2,"speedKmh":3.2,"ts":"251105144841","receivedAt":1762354121916,"accel":{"x":-0.77,"y":-1.906,"z":0.809},"gyro":{"x":0.6172,"y":-0.1797,"z":0.3398},"mag":{"x":-13.69,"y":7.06,"z":-25.94},"quat":{"i":0.2974,"j":-0.3498,"k":0.8124,"r":0.3594},"euler":{"roll":-31.51,"pitch":-47.28,"yaw":146.35}}}
{"t":1762354121931,"d":{"mac":"2CCF67CB6518","lat":44.831765,"lon":11.2240675,"sats":9,"qual":5,"speedKmh":3.2,"ts":"251104144841","receivedAt":1762354121931,"accel":{"x":0.992,"y":-1.098,"z":2.422},"gyro":{"x":-0.8711,"y":-0.1309,"z":0.3887},"mag":{"x":30.94,"y":29.5,"z":-10.19},"quat":{"i":-0.2539,"j":0.3391,"k":0.2621,"r":0.8671},"euler":{"roll":-22.27,"pitch":46.15,"yaw":24.06}}}
{"t":1762354121976,"d":{"mac":"2CCF679AF52F","lat":44.8317492,"lon":11.2240512,"sats":8,"qual":2,"speedKmh":3.4,"ts":"251105144841","receivedAt":1762354121976,"accel":{"x":-0.477,"y":-2.242,"z":0.961},"gyro":{"x":0.8379,"y":-0.0176,"z":0.6758},"mag":{"x":-13.31,"y":6.25,"z":-25.81},"quat":{"i":0.2994,"j":-0.3386,"k":0.8245,"r":0.3404},"euler":{"roll":-30.95,"pitch":-46.4,"yaw":148.67}}}
{"t":1762354122014,"d":{"mac":"2CCF67CB6518","lat":44.8317648,"lon":11.2240682,"sats":9,"qual":5,"speedKmh":3.3,"ts":"251104144841","receivedAt":1762354122014,"accel":{"x":-0.496,"y":-1.594,"z":2.758},"gyro":{"x":-0.8965,"y":-0.2852,"z":0.3008},"mag":{"x":31.31,"y":29.5,"z":-8.44},"quat":{"i":-0.2682,"j":0.3312,"k":0.2776,"r":0.861},"euler":{"roll":-23.59,"pitch":45.99,"yaw":25.62}}}
{"t":1762354122055,"d":{"mac":"2CCF679AF52F","lat":44.8317493,"lon":11.2240522,"sats":8,"qual":2,"speedKmh":3.4,"ts":"251105144841","receivedAt":1762354122055,"accel":{"x":0.277,"y":-1.422,"z":0.949},"gyro":{"x":0.6641,"y":0.0527,"z":0.6953},"mag":{"x":-13.75,"y":3.25,"z":-25.12},"quat":{"i":0.2991,"j":-0.3273,"k":0.8365,"r":0.3218},"euler":{"roll":-30.34,"pitch":-45.33,"yaw":150.84}}}
{"t":1762354122076,"d":{"mac":"2CCF67CB6518","lat":44.8317645,"lon":11.2240692,"sats":9,"qual":5,"speedKmh":4.1,"ts":"251104144841","receivedAt":1762354122076,"accel":{"x":-0.613,"y":-0.844,"z":1.828},"gyro":{"x":-0.3223,"y":-0.5391,"z":0.3301},"mag":{"x":31.31,"y":30.94,"z":-6},"quat":{"i":-0.2841,"j":0.3087,"k":0.3049,"r":0.855},"euler":{"roll":-24.66,"pitch":44.52,"yaw":29.03}}}
{"t":1762354122116,"d":{"mac":"2CCF679AF52F","lat":44.8317497,"lon":11.2240533,"sats":8,"qual":5,"speedKmh":3.5,"ts":"251105144842","receivedAt":1762354122116,"accel":{"x":1.469,"y":-0.992,"z":0.449},"gyro":{"x":0.6152,"y":0.1953,"z":0.5039},"mag":{"x":-13.88,"y":5.5,"z":-26.31},"quat":{"i":0.2968,"j":-0.3173,"k":0.8477,"r":0.3044},"euler":{"roll":-29.86,"pitch":-44.14,"yaw":152.83}}}
{"t":1762354122154,"d":{"mac":"2CCF67CB6518","lat":44.8317642,"lon":11.2240702,"sats":9,"qual":5,"speedKmh":4.1,"ts":"251104144842","receivedAt":1762354122154,"accel":{"x":0.18,"y":-1.168,"z":0.762},"gyro":{"x":-0.0137,"y":-0.2578,"z":0.2148},"mag":{"x":31.31,"y":30.94,"z":-6},"quat":{"i":-0.2825,"j":0.3002,"k":0.3153,"r":0.8548},"euler":{"roll":-23.98,"pitch":43.74,"yaw":30.75}}}
{"t":1762354122176,"d":{"mac":"2CCF679AF52F","lat":44.8317495,"lon":11.224054,"sats":8,"qual":5,"speedKmh":3.3,"ts":"251105144842","receivedAt":1762354122176,"accel":{"x":1.102,"y":1.699,"z":-0.289},"gyro":{"x":-0.1523,"y":-0.5508,"z":-0.1582},"mag":{"x":-14.44,"y":2.69,"z":-26.31},"quat":{"i":0.3036,"j":-0.3143,"k":0.8519,"r":0.2886},"euler":{"roll":-30.24,"pitch":-44.32,"yaw":155.12}}}
{"t":1762354122206,"d":{"mac":"2CCF67CB6518","lat":44.831764,"lon":11.2240712,"sats":9,"qual":5,"speedKmh":4.4,"ts":"251104144842","receivedAt":1762354122206,"accel":{"x":-1.703,"y":-1.512,"z":-1.34},"gyro":{"x":0.1777,"y":0.2246,"z":0.293},"mag":{"x":33.5,"y":28.75,"z":-8.06},"quat":{"i":-0.2777,"j":0.3026,"k":0.3189,"r":0.8542},"euler":{"roll":-23.01,"pitch":43.95,"yaw":31.55}}}
{"t":1762354122286,"d":{"mac":"2CCF67CB6518","lat":44.8317642,"lon":11.2240717,"sats":9,"qual":2,"speedKmh":3.4,"ts":"251104144842","receivedAt":1762354122286,"accel":{"x":1.594,"y":-0.969,"z":-0.883},"gyro":{"x":0.3652,"y":0.377,"z":0.3789},"mag":{"x":34.19,"y":26.19,"z":-8.44},"quat":{"i":-0.2612,"j":0.3268,"k":0.3219,"r":0.8493},"euler":{"roll":-19.74,"pitch":46.33,"yaw":33}}}
{"t":1762354122324,"d":{"mac":"2CCF679AF52F","lat":44.8317497,"lon":11.2240555,"sats":8,"qual":5,"speedKmh":4.1,"ts":"251105144842","receivedAt":1762354122324,"accel":{"x":0.562,"y":1.828,"z":-0.184},"gyro":{"x":-0.1641,"y":-0.4883,"z":-0.1387},"mag":{"x":-15.31,"y":3.56,"z":-25.19},"quat":{"i":0.3146,"j":-0.3215,"k":0.8452,"r":0.2885},"euler":{"roll":-31.3,"pitch":-45.83,"yaw":155.82}}}
{"t":1762354122331,"d":{"mac":"2CCF679AF52F","lat":44.8317492,"lon":11.224056,"sats":8,"qual":5,"speedKmh":3.6,"ts":"251105144842","receivedAt":1762354122331,"accel":{"x":-0.805,"y":1.684,"z":-0.965},"gyro":{"x":-0.3359,"y":-0.2129,"z":-0.1816},"mag":{"x":-16.5,"y":3.44,"z":-25.06},"quat":{"i":0.3213,"j":-0.3273,"k":0.8397,"r":0.2907},"euler":{"roll":-32.07,"pitch":-46.88,"yaw":156.01}}}
{"t":1762354122370,"d":{"mac":"2CCF67CB6518","lat":44.8317638,"lon":11.2240728,"sats":9,"qual":2,"speedKmh":3.9,"ts":"251104144842","receivedAt":1762354122370,"accel":{"x":2.133,"y":-0.629,"z":-1.215},"gyro":{"x":0.3984,"y":-0.0547,"z":0.084},"mag":{"x":34.94,"y":27.31,"z":-8.88},"quat":{"i":-0.2504,"j":0.3322,"k":0.3203,"r":0.8511},"euler":{"roll":-18.07,"pitch":46.54,"yaw":33.42}}}
{"t":1762354122399,"d":{"mac":"2CCF67CB6518","lat":44.8317633,"lon":11.224074,"sats":9,"qual":2,"speedKmh":4.8,"ts":"251104144842","receivedAt":1762354122399,"accel":{"x":1.801,"y":-1.023,"z":-1.906},"gyro":{"x":0.4941,"y":-0.0332,"z":-0.0781},"mag":{"x":34.56,"y":26.56,"z":-8.44},"quat":{"i":-0.2407,"j":0.3342,"k":0.3166,"r":0.8545},"euler":{"roll":-16.81,"pitch":46.35,"yaw":33.42}}}
{"t":1762354122403,"d":{"mac":"2CCF679AF52F","lat":44.8317483,"lon":11.2240557,"sats":8,"qual":5,"speedKmh":2.4,"ts":"251105144842","receivedAt":1762354122403,"accel":{"x":-1.59,"y":1.227,"z":-0.477},"gyro":{"x":-0.1016,"y":-0.041,"z":-0.2188},"mag":{"x":-17,"y":4.75,"z":-25.56},"quat":{"i":0.3238,"j":-0.3391,"k":0.8304,"r":0.301},"euler":{"roll":-33.31,"pitch":-47.89,"yaw":155.29}}}
{"t":1762354122454,"d":{"mac":"2CCF679AF52F","lat":44.8317482,"lon":11.2240567,"sats":8,"qual":5,"speedKmh":3.1,"ts":"251105144842","receivedAt":1762354122454,"accel":{"x":-1.285,"y":1.492,"z":0.184},"gyro":{"x":-0.1953,"y":0.002,"z":-0.1465},"mag":{"x":-15.81,"y":4.5,"z":-24},"quat":{"i":0.3248,"j":-0.341,"k":0.8275,"r":0.3058},"euler":{"roll":-33.31,"pitch":-48.26,"yaw":154.69}}}
{"t":1762354122476,"d":{"mac":"2CCF67CB6518","lat":44.8317635,"lon":11.2240745,"sats":9,"qual":2,"speedKmh":3.7,"ts":"251104144842","receivedAt":1762354122476,"accel":{"x":1.594,"y":-1.062,"z":-2.211},"gyro":{"x":0.4375,"y":0.0723,"z":-0.0703},"mag":{"x":34.19,"y":27.75,"z":-10.94},"quat":{"i":-0.2308,"j":0.3389,"k":0.3105,"r":0.8576},"euler":{"roll":-15.61,"pitch":46.44,"yaw":33.07}}}
{"t":1762354122514,"d":{"mac":"2CCF679AF52F","lat":44.8317477,"lon":11.2240577,"sats":8,"qual":5,"speedKmh":3.6,"ts":"251105144842","receivedAt":1762354122514,"accel":{"x":-1.43,"y":0.988,"z":0.68},"gyro":{"x":-0.2324,"y":0.2676,"z":-0.1113},"mag":{"x":-15.12,"y":4.25,"z":-24.69},"quat":{"i":0.3209,"j":-0.3433,"k":0.8261,"r":0.311},"euler":{"roll":-33.36,"pitch":-48.05,"yaw":153.96}}}
{"t":1762354122546,"d":{"mac":"2CCF67CB6518","lat":44.8317637,"lon":11.2240752,"sats":9,"qual":2,"speedKmh":3.6,"ts":"251104144842","receivedAt":1762354122546,"accel":{"x":-0.805,"y":-1.953,"z":0.391},"gyro":{"x":0.3066,"y":0.2129,"z":-0.2734},"mag":{"x":34.19,"y":24.75,"z":-11.38},"quat":{"i":-0.2209,"j":0.3448,"k":0.2928,"r":0.864},"euler":{"roll":-15.13,"pitch":46.49,"yaw":30.92}}}
{"t":1762354122592,"d":{"mac":"2CCF679AF52F","lat":44.8317472,"lon":11.2240583,"sats":8,"qual":5,"speedKmh":3.6,"ts":"251105144842","receivedAt":1762354122591,"accel":{"x":1.762,"y":-0.543,"z":1.77},"gyro":{"x":-0.457,"y":0.2363,"z":-0.0234},"mag":{"x":-17.25,"y":3.75,"z":-24.62},"quat":{"i":0.3054,"j":-0.3562,"k":0.8212,"r":0.3247},"euler":{"roll":-34.64,"pitch":-47.14,"yaw":152.35}}}
{"t":1762354122614,"d":{"mac":"2CCF67CB6518","lat":44.8317633,"lon":11.224076,"sats":9,"qual":2,"speedKmh":3.7,"ts":"251104144842","receivedAt":1762354122614,"accel":{"x":-1.141,"y":-1.883,"z":1.719},"gyro":{"x":0.2695,"y":0.0742,"z":-0.4883},"mag":{"x":33.81,"y":25.5,"z":-13.12},"quat":{"i":-0.2177,"j":0.348,"k":0.28,"r":0.8678},"euler":{"roll":-15.43,"pitch":46.55,"yaw":29.09}}}
{"t":1762354122662,"d":{"mac":"2CCF679AF52F","lat":44.831747,"lon":11.224059,"sats":8,"qual":5,"speedKmh":3.3,"ts":"251105144842","receivedAt":1762354122661,"accel":{"x":1.68,"y":-1.094,"z":2.527},"gyro":{"x":-0.3125,"y":0.2676,"z":0.0449},"mag":{"x":-16.12,"y":5.62,"z":-25.56},"quat":{"i":0.2963,"j":-0.3627,"k":0.8195,"r":0.3302},"euler":{"roll":-35.4,"pitch":-46.49,"yaw":151.71}}}
{"t":1762354122683,"d":{"mac":"2CCF67CB6518","lat":44.8317628,"lon":11.2240773,"sats":9,"qual":2,"speedKmh":4.7,"ts":"251104144842","receivedAt":1762354122683,"accel":{"x":-2.742,"y":0.113,"z":0.789},"gyro":{"x":0.7285,"y":0.2637,"z":-0.5898},"mag":{"x":32.06,"y":28.12,"z":-12.69},"quat":{"i":-0.206,"j":0.355,"k":0.2434,"r":0.8788},"euler":{"roll":-15.93,"pitch":46.41,"yaw":24.1}}}
{"t":1762354122753,"d":{"mac":"2CCF679AF52F","lat":44.831747,"lon":11.2240595,"sats":8,"qual":2,"speedKmh":3,"ts":"251105144842","receivedAt":1762354122753,"accel":{"x":1.703,"y":-1.02,"z":0.93},"gyro":{"x":0.0449,"y":0.2012,"z":-0.2148},"mag":{"x":-14.56,"y":6.56,"z":-26},"quat":{"i":0.2816,"j":-0.3633,"k":0.8215,"r":0.3373},"euler":{"roll":-35.17,"pitch":-45.05,"yaw":150.33}}}
{"t":1762354122761,"d":{"mac":"2CCF67CB6518","lat":44.8317623,"lon":11.2240792,"sats":9,"qual":2,"speedKmh":5.8,"ts":"251104144842","receivedAt":1762354122761,"accel":{"x":-2.113,"y":1.168,"z":0.516},"gyro":{"x":0.6797,"y":0.2109,"z":-0.4395},"mag":{"x":31.69,"y":27.38,"z":-13.5},"quat":{"i":-0.1954,"j":0.3615,"k":0.222,"r":0.8842},"euler":{"roll":-15.61,"pitch":46.56,"yaw":21.44}}}
{"t":1762354122763,"d":{"mac":"2CCF679AF52F","lat":44.8317465,"lon":11.2240603,"sats":8,"qual":2,"speedKmh":3.5,"ts":"251105144842","receivedAt":1762354122763,"accel":{"x":1.297,"y":-0.93,"z":-0.566},"gyro":{"x":0.3477,"y":-0.1543,"z":-0.1445},"mag":{"x":-14.62,"y":4.94,"z":-25.81},"quat":{"i":0.2842,"j":-0.3577,"k":0.822,"r":0.3401},"euler":{"roll":-34.11,"pitch":-45.27,"yaw":149.63}}}
{"t":1762354122808,"d":{"mac":"2CCF67CB6518","lat":44.8317622,"lon":11.22408,"sats":9,"qual":2,"speedKmh":4.9,"ts":"251104144842","receivedAt":1762354122808,"accel":{"x":-1.125,"y":3.641,"z":-1.102},"gyro":{"x":0.0664,"y":0.3516,"z":0.0371},"mag":{"x":32.06,"y":28.12,"z":-13.06},"quat":{"i":-0.1898,"j":0.3687,"k":0.2121,"r":0.8849},"euler":{"roll":-15.3,"pitch":47.14,"yaw":20.25}}}
{"t":1762354122854,"d":{"mac":"2CCF679AF52F","lat":44.8317467,"lon":11.2240613,"sats":8,"qual":2,"speedKmh":3.4,"ts":"251105144842","receivedAt":1762354122854,"accel":{"x":-0.496,"y":0.652,"z":-1.293},"gyro":{"x":0.3164,"y":-0.3691,"z":-0.2812},"mag":{"x":-15.12,"y":5.12,"z":-24.81},"quat":{"i":0.2949,"j":-0.3506,"k":0.8217,"r":0.3391},"euler":{"roll":-32.96,"pitch":-46.25,"yaw":149.55}}}
{"t":1762354122876,"d":{"mac":"2CCF67CB6518","lat":44.831762,"lon":11.2240807,"sats":9,"qual":5,"speedKmh":4.2,"ts":"251104144842","receivedAt":1762354122876,"accel":{"x":1.285,"y":1.254,"z":-0.797},"gyro":{"x":-0.2949,"y":0.1328,"z":0.1992},"mag":{"x":33.06,"y":27.75,"z":-11.44},"quat":{"i":-0.2034,"j":0.3821,"k":0.2217,"r":0.8738},"euler":{"roll":-16.56,"pitch":49.29,"yaw":20.84}}}
{"t":1762354122903,"d":{"mac":"2CCF679AF52F","lat":44.8317467,"lon":11.224062,"sats":8,"qual":2,"speedKmh":3.2,"ts":"251105144842","receivedAt":1762354122903,"accel":{"x":-1.273,"y":0.984,"z":-1.566},"gyro":{"x":0.0605,"y":-0.2852,"z":-0.2969},"mag":{"x":-15.25,"y":5.69,"z":-25.44},"quat":{"i":0.3057,"j":-0.3475,"k":0.8182,"r":0.3411},"euler":{"roll":-32.21,"pitch":-47.5,"yaw":149.22}}}
{"t":1762354122953,"d":{"mac":"2CCF67CB6518","lat":44.8317617,"lon":11.2240813,"sats":9,"qual":5,"speedKmh":4,"ts":"251104144842","receivedAt":1762354122953,"accel":{"x":2.223,"y":0.91,"z":-0.895},"gyro":{"x":-0.1914,"y":-0.0234,"z":0.1543},"mag":{"x":33.06,"y":26.25,"z":-10.56},"quat":{"i":-0.2057,"j":0.3832,"k":0.2264,"r":0.8715},"euler":{"roll":-16.57,"pitch":49.56,"yaw":21.44}}}
{"t":1762354123016,"d":{"mac":"2CCF67CB6518","lat":44.8317615,"lon":11.224082,"sats":9,"qual":5,"speedKmh":4,"ts":"251104144842","receivedAt":1762354123016,"accel":{"x":1.633,"y":0.809,"z":-0.387},"gyro":{"x":-0.2559,"y":0.002,"z":0.1895},"mag":{"x":33.81,"y":28.12,"z":-11},"quat":{"i":-0.2133,"j":0.3821,"k":0.2377,"r":0.8672},"euler":{"roll":-16.96,"pitch":49.83,"yaw":22.74}}}
{"t":1762354123094,"d":{"mac":"2CCF67CB6518","lat":44.8317615,"lon":11.2240822,"sats":9,"qual":2,"speedKmh":3.2,"ts":"251104144843","receivedAt":1762354123094,"accel":{"x":1.578,"y":0.68,"z":0.203},"gyro":{"x":-0.4043,"y":-0.1992,"z":0.0977},"mag":{"x":34.56,"y":27.38,"z":-10.12},"quat":{"i":-0.2179,"j":0.379,"k":0.2437,"r":0.8657},"euler":{"roll":-17.31,"pitch":49.68,"yaw":23.38}}}
{"t":1762354123097,"d":{"mac":"2CCF679AF52F","lat":44.8317465,"lon":11.224063,"sats":8,"qual":2,"speedKmh":3.8,"ts":"251105144842","receivedAt":1762354123097,"accel":{"x":-1.973,"y":1.09,"z":-2.355},"gyro":{"x":-0.3574,"y":-0.127,"z":-0.1855},"mag":{"x":-16.31,"y":5.44,"z":-24.75},"quat":{"i":0.3107,"j":-0.3499,"k":0.8134,"r":0.3455},"euler":{"roll":-32.25,"pitch":-48.35,"yaw":148.77}}}
{"t":1762354123098,"d":{"mac":"2CCF679AF52F","lat":44.8317458,"lon":11.2240647,"sats":8,"qual":2,"speedKmh":3.9,"ts":"251105144843","receivedAt":1762354123097,"accel":{"x":-1.309,"y":-0.719,"z":-0.875},"gyro":{"x":0.1582,"y":0.0391,"z":0.1055},"mag":{"x":-15.44,"y":4.12,"z":-24.19},"quat":{"i":0.3217,"j":-0.3464,"k":0.8123,"r":0.3415},"euler":{"roll":-31.81,"pitch":-49.4,"yaw":149.33}}}
{"t":1762354123098,"d":{"mac":"2CCF679AF52F","lat":44.831746,"lon":11.2240632,"sats":8,"qual":2,"speedKmh":3,"ts":"251105144842","receivedAt":1762354123098,"accel":{"x":-1.586,"y":-0.711,"z":-1.777},"gyro":{"x":0.2305,"y":-0.2383,"z":-0.0098},"mag":{"x":-16.38,"y":3.31,"z":-24.5},"quat":{"i":0.3189,"j":-0.3487,"k":0.811,"r":0.3448},"euler":{"roll":-31.99,"pitch":-49.27,"yaw":148.91}}}
{"t":1762354123161,"d":{"mac":"2CCF67CB6518","lat":44.8317608,"lon":11.2240828,"sats":9,"qual":2,"speedKmh":3.7,"ts":"251104144843","receivedAt":1762354123161,"accel":{"x":0.246,"y":0.703,"z":0.547},"gyro":{"x":-0.5605,"y":-0.2793,"z":0.1152},"mag":{"x":33.81,"y":27.31,"z":-9.31},"quat":{"i":-0.2262,"j":0.3705,"k":0.2515,"r":0.8651},"euler":{"roll":-18.21,"pitch":49,"yaw":24.07}}}
{"t":1762354123166,"d":{"mac":"2CCF679AF52F","lat":44.8317455,"lon":11.2240657,"sats":8,"qual":5,"speedKmh":4,"ts":"251105144843","receivedAt":1762354123166,"accel":{"x":0.531,"y":-2.105,"z":0.695},"gyro":{"x":0.3457,"y":-0.0176,"z":0.2617},"mag":{"x":-16.25,"y":4.5,"z":-24.06},"quat":{"i":0.3189,"j":-0.3439,"k":0.8195,"r":0.3293},"euler":{"roll":-32.28,"pitch":-48.52,"yaw":151.08}}}
{"t":1762354123295,"d":{"mac":"2CCF679AF52F","lat":44.8317455,"lon":11.2240675,"sats":8,"qual":5,"speedKmh":5,"ts":"251105144843","receivedAt":1762354123294,"accel":{"x":0.801,"y":-1.152,"z":0.703},"gyro":{"x":0.1738,"y":0.1973,"z":0.4414},"mag":{"x":-16.06,"y":4.75,"z":-25.12},"quat":{"i":0.3159,"j":-0.3398,"k":0.8257,"r":0.3208},"euler":{"roll":-32.19,"pitch":-47.7,"yaw":152.08}}}
{"t":1762354123295,"d":{"mac":"2CCF67CB6518","lat":44.8317603,"lon":11.2240845,"sats":9,"qual":2,"speedKmh":5.1,"ts":"251104144843","receivedAt":1762354123295,"accel":{"x":-0.629,"y":-0.176,"z":1.32},"gyro":{"x":-0.5645,"y":-0.1582,"z":0.1445},"mag":{"x":34.19,"y":28.81,"z":-8.88},"quat":{"i":-0.2355,"j":0.363,"k":0.2604,"r":0.8632},"euler":{"roll":-19.17,"pitch":48.52,"yaw":24.87}}}
{"t":1762354123302,"d":{"mac":"2CCF679AF52F","lat":44.831746,"lon":11.2240692,"sats":8,"qual":5,"speedKmh":4.9,"ts":"251105144843","receivedAt":1762354123302,"accel":{"x":2.367,"y":-0.445,"z":1.176},"gyro":{"x":-0.0859,"y":0.2324,"z":0.3066},"mag":{"x":-16.44,"y":5.06,"z":-25},"quat":{"i":0.3073,"j":-0.3406,"k":0.831,"r":0.3147},"euler":{"roll":-32.76,"pitch":-46.47,"yaw":152.9}}}
{"t":1762354123310,"d":{"mac":"2CCF67CB6518","lat":44.83176,"lon":11.2240858,"sats":9,"qual":2,"speedKmh":5.7,"ts":"251104144843","receivedAt":1762354123310,"accel":{"x":-2.473,"y":-1.941,"z":2.629},"gyro":{"x":-0.0938,"y":-0.2695,"z":-0.1875},"mag":{"x":33.12,"y":27.31,"z":-8.5},"quat":{"i":-0.2479,"j":0.3483,"k":0.2674,"r":0.8636},"euler":{"roll":-20.86,"pitch":47.23,"yaw":25.21}}}
{"t":1762354123350,"d":{"mac":"2CCF67CB6518","lat":44.8317598,"lon":11.2240867,"sats":9,"qual":2,"speedKmh":4.9,"ts":"251104144843","receivedAt":1762354123350,"accel":{"x":-2.48,"y":-1.488,"z":1.531},"gyro":{"x":0.2051,"y":-0.1836,"z":-0.043},"mag":{"x":33.06,"y":28.12,"z":-11},"quat":{"i":-0.2452,"j":0.3433,"k":0.2659,"r":0.8668},"euler":{"roll":-20.64,"pitch":46.51,"yaw":25.16}}}
{"t":1762354123374,"d":{"mac":"2CCF679AF52F","lat":44.8317453,"lon":11.2240697,"sats":8,"qual":5,"speedKmh":4.1,"ts":"251105144843","receivedAt":1762354123373,"accel":{"x":2.238,"y":1.859,"z":0.875},"gyro":{"x":-0.0195,"y":-0.1484,"z":-0.2129},"mag":{"x":-15.88,"y":3.69,"z":-24.19},"quat":{"i":0.307,"j":-0.3376,"k":0.8339,"r":0.3107},"euler":{"roll":-32.53,"pitch":-46.2,"yaw":153.32}}}
{"t":1762354123431,"d":{"mac":"2CCF67CB6518","lat":44.8317597,"lon":11.2240875,"sats":9,"qual":2,"speedKmh":4.4,"ts":"251104144843","receivedAt":1762354123431,"accel":{"x":-2.645,"y":-0.715,"z":-0.777},"gyro":{"x":0.1777,"y":0.0352,"z":-0.0801},"mag":{"x":33.44,"y":27.75,"z":-11.88},"quat":{"i":-0.2407,"j":0.3416,"k":0.2629,"r":0.8696},"euler":{"roll":-20.17,"pitch":46.11,"yaw":24.99}}}
{"t":1762354123434,"d":{"mac":"2CCF679AF52F","lat":44.831745,"lon":11.2240712,"sats":8,"qual":5,"speedKmh":4.6,"ts":"251105144843","receivedAt":1762354123434,"accel":{"x":0.863,"y":1.922,"z":-0.602},"gyro":{"x":-0.4512,"y":-0.1777,"z":-0.3535},"mag":{"x":-17.38,"y":3.88,"z":-25.25},"quat":{"i":0.311,"j":-0.3418,"k":0.8281,"r":0.3174},"euler":{"roll":-32.76,"pitch":-47.06,"yaw":152.65}}}
{"t":1762354123492,"d":{"mac":"2CCF67CB6518","lat":44.8317593,"lon":11.224089,"sats":9,"qual":2,"speedKmh":5.2,"ts":"251104144843","receivedAt":1762354123492,"accel":{"x":1.207,"y":0.883,"z":-0.395},"gyro":{"x":0.3379,"y":-0.0938,"z":0.3262},"mag":{"x":34.19,"y":25.88,"z":-11.38},"quat":{"i":-0.2318,"j":0.3539,"k":0.2649,"r":0.8665},"euler":{"roll":-18.44,"pitch":47.4,"yaw":25.84}}}
{"t":1762354123512,"d":{"mac":"2CCF679AF52F","lat":44.8317453,"lon":11.2240722,"sats":8,"qual":5,"speedKmh":4.2,"ts":"251105144843","receivedAt":1762354123511,"accel":{"x":-0.762,"y":1.555,"z":-1.074},"gyro":{"x":-0.4102,"y":-0.1895,"z":-0.3203},"mag":{"x":-16.81,"y":3.75,"z":-24.62},"quat":{"i":0.3136,"j":-0.3505,"k":0.8199,"r":0.3265},"euler":{"roll":-33.56,"pitch":-47.99,"yaw":151.86}}}
{"t":1762354123561,"d":{"mac":"2CCF67CB6518","lat":44.831759,"lon":11.2240898,"sats":9,"qual":2,"speedKmh":4.8,"ts":"251104144843","receivedAt":1762354123561,"accel":{"x":1.828,"y":-0.355,"z":-1.699},"gyro":{"x":0.2578,"y":-0.4004,"z":0.1895},"mag":{"x":34.94,"y":26.62,"z":-10.94},"quat":{"i":-0.2203,"j":0.3514,"k":0.2689,"r":0.8693},"euler":{"roll":-16.47,"pitch":46.84,"yaw":27.21}}}
{"t":1762354123573,"d":{"mac":"2CCF679AF52F","lat":44.8317453,"lon":11.2240733,"sats":8,"qual":5,"speedKmh":4.4,"ts":"251105144843","receivedAt":1762354123573,"accel":{"x":-2.344,"y":1.047,"z":-0.625},"gyro":{"x":-0.1816,"y":-0.1797,"z":-0.2012},"mag":{"x":-16.25,"y":4.5,"z":-24.06},"quat":{"i":0.3201,"j":-0.3614,"k":0.8078,"r":0.3383},"euler":{"roll":-34.53,"pitch":-49.6,"yaw":150.9}}}
{"t":1762354123631,"d":{"mac":"2CCF67CB6518","lat":44.8317583,"lon":11.2240908,"sats":9,"qual":2,"speedKmh":4.8,"ts":"251104144843","receivedAt":1762354123631,"accel":{"x":1.051,"y":-0.551,"z":-2.914},"gyro":{"x":0.0059,"y":-0.0801,"z":0.0039},"mag":{"x":34.94,"y":25.5,"z":-12.62},"quat":{"i":-0.2089,"j":0.3433,"k":0.2727,"r":0.8741},"euler":{"roll":-14.73,"pitch":45.57,"yaw":28.43}}}
{"t":1762354123634,"d":{"mac":"2CCF679AF52F","lat":44.8317453,"lon":11.2240742,"sats":8,"qual":5,"speedKmh":4.2,"ts":"251105144843","receivedAt":1762354123634,"accel":{"x":-1.801,"y":1.094,"z":-0.023},"gyro":{"x":-0.1172,"y":-0.1133,"z":-0.1543},"mag":{"x":-17.06,"y":5.38,"z":-22.62},"quat":{"i":0.3237,"j":-0.3646,"k":0.8035,"r":0.3416},"euler":{"roll":-34.81,"pitch":-50.28,"yaw":150.68}}}
{"t":1762354123686,"d":{"mac":"2CCF67CB6518","lat":44.8317585,"lon":11.2240923,"sats":9,"qual":2,"speedKmh":5.7,"ts":"251104144843","receivedAt":1762354123686,"accel":{"x":0.934,"y":-0.91,"z":-2.125},"gyro":{"x":-0.0469,"y":-0.127,"z":-0.1172},"mag":{"x":34.56,"y":25.5,"z":-11.38},"quat":{"i":-0.2093,"j":0.3409,"k":0.2719,"r":0.8752},"euler":{"roll":-14.9,"pitch":45.29,"yaw":28.27}}}
{"t":1762354123703,"d":{"mac":"2CCF679AF52F","lat":44.8317448,"lon":11.2240753,"sats":8,"qual":5,"speedKmh":4.6,"ts":"251105144843","receivedAt":1762354123703,"accel":{"x":-1.266,"y":0.945,"z":1.02},"gyro":{"x":-0.1582,"y":0.0742,"z":-0.0703},"mag":{"x":-16.81,"y":4.62,"z":-23.06},"quat":{"i":0.3242,"j":-0.3662,"k":0.8012,"r":0.3448},"euler":{"roll":-34.85,"pitch":-50.53,"yaw":150.28}}}
{"t":1762354123753,"d":{"mac":"2CCF67CB6518","lat":44.8317582,"lon":11.2240928,"sats":9,"qual":2,"speedKmh":4.5,"ts":"251104144843","receivedAt":1762354123753,"accel":{"x":-0.789,"y":-1.391,"z":-0.062},"gyro":{"x":0.1504,"y":0.0293,"z":-0.1445},"mag":{"x":34.56,"y":26.62,"z":-12.69},"quat":{"i":-0.2095,"j":0.3386,"k":0.2686,"r":0.8771},"euler":{"roll":-15.21,"pitch":44.95,"yaw":27.72}}}
{"t":1762354123764,"d":{"mac":"2CCF679AF52F","lat":44.8317448,"lon":11.2240765,"sats":8,"qual":5,"speedKmh":4.7,"ts":"251105144843","receivedAt":1762354123764,"accel":{"x":1.699,"y":-0.531,"z":1.418},"gyro":{"x":-0.1953,"y":0.1562,"z":0.0332},"mag":{"x":-18.38,"y":4.88,"z":-24.69},"quat":{"i":0.3142,"j":-0.3738,"k":0.7994,"r":0.3499},"euler":{"roll":-35.85,"pitch":-49.81,"yaw":149.81}}}
{"t":1762354123816,"d":{"mac":"2CCF67CB6518","lat":44.8317575,"lon":11.2240938,"sats":9,"qual":2,"speedKmh":4.9,"ts":"251104144843","receivedAt":1762354123816,"accel":{"x":-1.496,"y":-1.973,"z":0.512},"gyro":{"x":0.2637,"y":-0.0527,"z":-0.2812},"mag":{"x":34.19,"y":25.88,"z":-12.69},"quat":{"i":-0.2053,"j":0.3397,"k":0.2617,"r":0.8798},"euler":{"roll":-14.99,"pitch":44.84,"yaw":26.91}}}
{"t":1762354123842,"d":{"mac":"2CCF679AF52F","lat":44.8317445,"lon":11.2240773,"sats":8,"qual":5,"speedKmh":4.2,"ts":"251105144843","receivedAt":1762354123841,"accel":{"x":1.688,"y":-0.918,"z":2.473},"gyro":{"x":-0.5332,"y":0.2969,"z":0.1582},"mag":{"x":-17,"y":6.5,"z":-24.44},"quat":{"i":0.3051,"j":-0.3828,"k":0.7974,"r":0.3531},"euler":{"roll":-37.17,"pitch":-49.18,"yaw":149.73}}}
{"t":1762354123876,"d":{"mac":"2CCF67CB6518","lat":44.8317573,"lon":11.2240953,"sats":9,"qual":5,"speedKmh":5.4,"ts":"251104144843","receivedAt":1762354123876,"accel":{"x":-2.277,"y":-0.285,"z":1.559},"gyro":{"x":0.1738,"y":-0.0996,"z":-0.3418},"mag":{"x":33.44,"y":27.38,"z":-13.5},"quat":{"i":-0.202,"j":0.3358,"k":0.2441,"r":0.887},"euler":{"roll":-15.68,"pitch":43.97,"yaw":24.4}}}
{"t":1762354123904,"d":{"mac":"2CCF679AF52F","lat":44.8317443,"lon":11.2240788,"sats":8,"qual":5,"speedKmh":5,"ts":"251105144843","receivedAt":1762354123904,"accel":{"x":2.922,"y":-1.734,"z":2.391},"gyro":{"x":-0.1426,"y":0.4121,"z":0.2617},"mag":{"x":-16.31,"y":6.25,"z":-23.25},"quat":{"i":0.2925,"j":-0.3887,"k":0.7987,"r":0.3542},"euler":{"roll":-38.14,"pitch":-47.95,"yaw":149.65}}}
{"t":1762354123953,"d":{"mac":"2CCF67CB6518","lat":44.8317568,"lon":11.2240967,"sats":9,"qual":5,"speedKmh":5.6,"ts":"251104144843","receivedAt":1762354123953,"accel":{"x":-1.52,"y":0.527,"z":0.672},"gyro":{"x":0.1504,"y":-0.0098,"z":-0.3496},"mag":{"x":33.12,"y":27,"z":-13.5},"quat":{"i":-0.1993,"j":0.3343,"k":0.2341,"r":0.8909},"euler":{"roll":-15.9,"pitch":43.55,"yaw":23.06}}}
{"t":1762354123964,"d":{"mac":"2CCF679AF52F","lat":44.831744,"lon":11.2240797,"sats":8,"qual":5,"speedKmh":4.4,"ts":"251105144843","receivedAt":1762354123964,"accel":{"x":1.652,"y":-0.785,"z":0.961},"gyro":{"x":0.293,"y":0.3457,"z":-0.0293},"mag":{"x":-15.69,"y":6.88,"z":-24},"quat":{"i":0.2835,"j":-0.3837,"k":0.804,"r":0.355},"euler":{"roll":-37.34,"pitch":-46.74,"yaw":148.97}}}
{"t":1762354124031,"d":{"mac":"2CCF67CB6518","lat":44.8317568,"lon":11.2240975,"sats":9,"qual":5,"speedKmh":4.6,"ts":"251104144843","receivedAt":1762354124031,"accel":{"x":-1.598,"y":1.871,"z":-0.883},"gyro":{"x":-0.0527,"y":0.2012,"z":-0.1309},"mag":{"x":33.81,"y":27.38,"z":-13.12},"quat":{"i":-0.201,"j":0.3356,"k":0.227,"r":0.8918},"euler":{"roll":-16.54,"pitch":43.62,"yaw":21.9}}}
{"t":1762354124033,"d":{"mac":"2CCF679AF52F","lat":44.8317438,"lon":11.2240807,"sats":8,"qual":5,"speedKmh":4.2,"ts":"251105144843","receivedAt":1762354124033,"accel":{"x":0.266,"y":0.75,"z":-1.391},"gyro":{"x":0.4395,"y":0.0547,"z":-0.1562},"mag":{"x":-15.56,"y":7.25,"z":-25.44},"quat":{"i":0.2896,"j":-0.3651,"k":0.8094,"r":0.3573},"euler":{"roll":-34.17,"pitch":-46.86,"yaw":147.54}}}
{"t":1762354124097,"d":{"mac":"2CCF679AF52F","lat":44.8317435,"lon":11.2240818,"sats":8,"qual":5,"speedKmh":4.4,"ts":"251105144844","receivedAt":1762354124096,"accel":{"x":-1.535,"y":1,"z":-1.344},"gyro":{"x":-0.041,"y":-0.0098,"z":-0.2422},"mag":{"x":-16.81,"y":5.94,"z":-25.19},"quat":{"i":0.2931,"j":-0.3636,"k":0.8073,"r":0.361},"euler":{"roll":-33.66,"pitch":-47.36,"yaw":146.93}}}
{"t":1762354124101,"d":{"mac":"2CCF67CB6518","lat":44.8317567,"lon":11.2240983,"sats":9,"qual":2,"speedKmh":3.9,"ts":"251104144844","receivedAt":1762354124101,"accel":{"x":1.004,"y":0.898,"z":-0.773},"gyro":{"x":-0.0742,"y":0.0996,"z":0.0898},"mag":{"x":33.5,"y":26.69,"z":-13.94},"quat":{"i":-0.2083,"j":0.3448,"k":0.229,"r":0.8862},"euler":{"roll":-17.36,"pitch":44.95,"yaw":21.75}}}
{"t":1762354124149,"d":{"mac":"2CCF679AF52F","lat":44.8317435,"lon":11.2240828,"sats":8,"qual":5,"speedKmh":4.2,"ts":"251105144844","receivedAt":1762354124148,"accel":{"x":-2.102,"y":0.523,"z":-1.59},"gyro":{"x":0.166,"y":0.0918,"z":-0.1641},"mag":{"x":-15.62,"y":5.19,"z":-25.19},"quat":{"i":0.2946,"j":-0.3601,"k":0.8063,"r":0.3654},"euler":{"roll":-32.8,"pitch":-47.58,"yaw":146.03}}}
{"t":1762354124171,"d":{"mac":"2CCF67CB6518","lat":44.8317563,"lon":11.2240992,"sats":9,"qual":2,"speedKmh":4.1,"ts":"251104144844","receivedAt":1762354124171,"accel":{"x":2.352,"y":0.844,"z":-1.309},"gyro":{"x":-0.082,"y":0.0762,"z":0.0723},"mag":{"x":32.38,"y":26.62,"z":-13.5},"quat":{"i":-0.209,"j":0.3466,"k":0.2308,"r":0.8848},"euler":{"roll":-17.34,"pitch":45.22,"yaw":21.97}}}
{"t":1762354124294,"d":{"mac":"2CCF67CB6518","lat":44.831756,"lon":11.2241003,"sats":9,"qual":2,"speedKmh":4.4,"ts":"251104144844","receivedAt":1762354124294,"accel":{"x":1.992,"y":0.477,"z":-0.871},"gyro":{"x":0.0137,"y":0.2578,"z":0.0059},"mag":{"x":33.5,"y":27.75,"z":-10.12},"quat":{"i":-0.2136,"j":0.353,"k":0.2316,"r":0.881},"euler":{"roll":-17.88,"pitch":46.13,"yaw":21.8}}}
{"t":1762354124303,"d":{"mac":"2CCF679AF52F","lat":44.831743,"lon":11.2240838,"sats":8,"qual":5,"speedKmh":4.6,"ts":"251105144844","receivedAt":1762354124303,"accel":{"x":-1.891,"y":0.152,"z":-2.234},"gyro":{"x":-0.0547,"y":-0.0625,"z":-0.0664},"mag":{"x":-16.19,"y":4.88,"z":-25.75},"quat":{"i":0.2961,"j":-0.3548,"k":0.8061,"r":0.3698},"euler":{"roll":-31.64,"pitch":-47.71,"yaw":145}}}
{"t":1762354124309,"d":{"mac":"2CCF67CB6518","lat":44.8317557,"lon":11.224101,"sats":9,"qual":2,"speedKmh":4.2,"ts":"251104144844","receivedAt":1762354124309,"accel":{"x":1.766,"y":0.422,"z":-0.348},"gyro":{"x":0.0371,"y":0.1934,"z":-0.0781},"mag":{"x":33.5,"y":27.38,"z":-12.25},"quat":{"i":-0.2143,"j":0.3588,"k":0.2292,"r":0.8791},"euler":{"roll":-18.07,"pitch":46.8,"yaw":21.36}}}
{"t":1762354124363,"d":{"mac":"2CCF67CB6518","lat":44.8317553,"lon":11.2241025,"sats":9,"qual":2,"speedKmh":5.2,"ts":"251104144844","receivedAt":1762354124363,"accel":{"x":0.133,"y":0.371,"z":0.711},"gyro":{"x":-0.082,"y":0.0859,"z":-0.0957},"mag":{"x":33.12,"y":27.75,"z":-11.44},"quat":{"i":-0.2162,"j":0.3606,"k":0.2263,"r":0.8787},"euler":{"roll":-18.54,"pitch":47.02,"yaw":20.76}}}
{"t":1762354124439,"d":{"mac":"2CCF67CB6518","lat":44.8317552,"lon":11.2241038,"sats":9,"qual":2,"speedKmh":5.5,"ts":"251104144844","receivedAt":1762354124439,"accel":{"x":-1.43,"y":-0.793,"z":3.273},"gyro":{"x":0.1465,"y":-0.0391,"z":-0.0859},"mag":{"x":33.44,"y":28.12,"z":-10.12},"quat":{"i":-0.223,"j":0.36,"k":0.2267,"r":0.8771},"euler":{"roll":-19.56,"pitch":47.11,"yaw":20.4}}}
{"t":1762354124474,"d":{"mac":"2CCF67CB6518","lat":44.8317547,"lon":11.224105,"sats":9,"qual":2,"speedKmh":5.9,"ts":"251104144844","receivedAt":1762354124474,"accel":{"x":-3.191,"y":-2.379,"z":2.473},"gyro":{"x":0.6719,"y":-0.1758,"z":-0.0742},"mag":{"x":33.12,"y":28.12,"z":-11.06},"quat":{"i":-0.2146,"j":0.3592,"k":0.2209,"r":0.881},"euler":{"roll":-18.66,"pitch":46.69,"yaw":20.04}}}
{"t":1762354124496,"d":{"mac":"2CCF679AF52F","lat":44.8317428,"lon":11.224085,"sats":8,"qual":5,"speedKmh":4.9,"ts":"251105144844","receivedAt":1762354124496,"accel":{"x":-1.637,"y":-0.48,"z":-1.773},"gyro":{"x":-0.0312,"y":-0.0254,"z":-0.0078},"mag":{"x":-15.62,"y":4.75,"z":-25.12},"quat":{"i":0.2972,"j":-0.3552,"k":0.805,"r":0.3708},"euler":{"roll":-31.6,"pitch":-47.9,"yaw":144.86}}}
{"t":1762354124496,"d":{"mac":"2CCF679AF52F","lat":44.8317428,"lon":11.224086,"sats":8,"qual":5,"speedKmh":4.5,"ts":"251105144844","receivedAt":1762354124496,"accel":{"x":-0.148,"y":-0.734,"z":-0.395},"gyro":{"x":-0.0352,"y":-0.207,"z":0.0938},"mag":{"x":-15.06,"y":4.62,"z":-24.5},"quat":{"i":0.2983,"j":-0.357,"k":0.8047,"r":0.3689},"euler":{"roll":-32,"pitch":-48.03,"yaw":145.31}}}
{"t":1762354124497,"d":{"mac":"2CCF679AF52F","lat":44.8317423,"lon":11.2240872,"sats":8,"qual":5,"speedKmh":4.8,"ts":"251105144844","receivedAt":1762354124497,"accel":{"x":2.621,"y":-0.648,"z":1.715},"gyro":{"x":-0.2207,"y":0.1055,"z":0.0039},"mag":{"x":-16,"y":4.69,"z":-24.94},"quat":{"i":0.2989,"j":-0.3649,"k":0.8025,"r":0.3654},"euler":{"roll":-33.48,"pitch":-48.28,"yaw":146.39}}}
{"t":1762354124498,"d":{"mac":"2CCF679AF52F","lat":44.8317425,"lon":11.2240883,"sats":8,"qual":5,"speedKmh":4.8,"ts":"251105144844","receivedAt":1762354124497,"accel":{"x":3.543,"y":-0.41,"z":2.359},"gyro":{"x":-0.1875,"y":0.0352,"z":-0.1426},"mag":{"x":-16,"y":4.69,"z":-24.94},"quat":{"i":0.2969,"j":-0.3686,"k":0.7994,"r":0.3701},"euler":{"roll":-33.8,"pitch":-48.38,"yaw":145.85}}}
{"t":1762354124564,"d":{"mac":"2CCF679AF52F","lat":44.8317423,"lon":11.2240892,"sats":8,"qual":5,"speedKmh":4.1,"ts":"251105144844","receivedAt":1762354124563,"accel":{"x":2.293,"y":0.172,"z":1.156},"gyro":{"x":0.1211,"y":0.0117,"z":-0.2852},"mag":{"x":-16.06,"y":6.44,"z":-25.69},"quat":{"i":0.2984,"j":-0.365,"k":0.7988,"r":0.3738},"euler":{"roll":-32.95,"pitch":-48.56,"yaw":145.03}}}
{"t":1762354124571,"d":{"mac":"2CCF67CB6518","lat":44.8317547,"lon":11.2241053,"sats":9,"qual":2,"speedKmh":4.3,"ts":"251104144844","receivedAt":1762354124571,"accel":{"x":-0.977,"y":-2.16,"z":0.969},"gyro":{"x":0.9297,"y":0.043,"z":-0.2129},"mag":{"x":34.19,"y":27.06,"z":-13.94},"quat":{"i":-0.1965,"j":0.3616,"k":0.2104,"r":0.8867},"euler":{"roll":-16.54,"pitch":46.39,"yaw":19.57}}}
{"t":1762354124616,"d":{"mac":"2CCF679AF52F","lat":44.8317422,"lon":11.2240902,"sats":8,"qual":5,"speedKmh":4,"ts":"251105144844","receivedAt":1762354124616,"accel":{"x":0.734,"y":1.418,"z":-0.715},"gyro":{"x":-0.8047,"y":-0.0488,"z":-0.5605},"mag":{"x":-15.88,"y":6.69,"z":-24.88},"quat":{"i":0.2999,"j":-0.3781,"k":0.7793,"r":0.3999},"euler":{"roll":-33.18,"pitch":-50.33,"yaw":141.61}}}
{"t":1762354124619,"d":{"mac":"2CCF67CB6518","lat":44.8317542,"lon":11.2241068,"sats":9,"qual":2,"speedKmh":5.1,"ts":"251104144844","receivedAt":1762354124619,"accel":{"x":-1.242,"y":0.504,"z":-0.996},"gyro":{"x":1.0605,"y":0.4902,"z":-0.0527},"mag":{"x":33.44,"y":24.81,"z":-15.19},"quat":{"i":-0.1668,"j":0.3846,"k":0.1815,"r":0.8895},"euler":{"roll":-13.62,"pitch":48.15,"yaw":16.96}}}
{"t":1762354124709,"d":{"mac":"2CCF67CB6518","lat":44.8317538,"lon":11.224108,"sats":9,"qual":2,"speedKmh":5.3,"ts":"251104144844","receivedAt":1762354124709,"accel":{"x":1.504,"y":-0.039,"z":-0.469},"gyro":{"x":1.3691,"y":-0.0195,"z":-0.125},"mag":{"x":33.12,"y":26.69,"z":-15.19},"quat":{"i":-0.1406,"j":0.395,"k":0.1664,"r":0.8925},"euler":{"roll":-10.44,"pitch":48.75,"yaw":16.39}}}
